{
"type": "FeatureCollection",
"crs": { "type": "name", "properties": { "name": "urn:ogc:def:crs:OGC:1.3:CRS84" } },
"features": [
{ "type": "Feature", "properties": { "OBJECTID": 4534, "ID": "0004060640", "NAME": "LOUIS A WEISS MEMORIAL HOSPITAL", "ADDRESS": "4646 N MARINE DRIVE", "CITY": "CHICAGO", "STATE": "IL", "ZIP": "60640", "ZIP4": "NOT AVAILABLE", "TELEPHONE": "(773) 878-8700", "TYPE": "GENERAL ACUTE CARE", "STATUS": "OPEN", "POPULATION": 184, "COUNTY": "COOK", "COUNTYFIPS": "17031", "COUNTRY": "USA", "LATITUDE": 41.966468354, "LONGITUDE": -87.649626807999894, "NAICS_CODE": "622110", "NAICS_DESC": "GENERAL MEDICAL AND SURGICAL HOSPITALS", "SOURCE": "https:\/\/data.illinois.gov\/", "SOURCEDATE": "2018-08-09T00:00:00.000Z", "VAL_METHOD": "IMAGERY", "VAL_DATE": "2016-04-25T00:00:00.000Z", "WEBSITE": "http:\/\/www.weisshospital.com", "STATE_ID": "140082", "ALT_NAME": "NOT AVAILABLE", "ST_FIPS": "17", "OWNER": "PROPRIETARY", "TTL_STAFF": -999, "BEDS": 184, "TRAUMA": "NOT AVAILABLE", "HELIPAD": "N" }, "geometry": { "type": "MultiPoint", "coordinates": [ [ -87.649626807999923, 41.966468354000021 ] ] } },
{ "type": "Feature", "properties": { "OBJECTID": 500, "ID": "0009760609", "NAME": "METHODIST HOSPITAL OF CHICAGO", "ADDRESS": "5025 N PAULINA STREET", "CITY": "CHICAGO", "STATE": "IL", "ZIP": "60640", "ZIP4": "NOT AVAILABLE", "TELEPHONE": "(773) 271-9040", "TYPE": "GENERAL ACUTE CARE", "STATUS": "OPEN", "POPULATION": 189, "COUNTY": "COOK", "COUNTYFIPS": "17031", "COUNTRY": "USA", "LATITUDE": 41.973086773, "LONGITUDE": -87.670743056999996, "NAICS_CODE": "622110", "NAICS_DESC": "GENERAL MEDICAL AND SURGICAL HOSPITALS", "SOURCE": "https:\/\/data.illinois.gov\/", "SOURCEDATE": "2018-08-09T00:00:00.000Z", "VAL_METHOD": "IMAGERY", "VAL_DATE": "2014-02-10T00:00:00.000Z", "WEBSITE": "http:\/\/www.bethanymethodist.org", "STATE_ID": "140197", "ALT_NAME": "NOT AVAILABLE", "ST_FIPS": "17", "OWNER": "NON-PROFIT", "TTL_STAFF": -999, "BEDS": 189, "TRAUMA": "NOT AVAILABLE", "HELIPAD": "N" }, "geometry": { "type": "MultiPoint", "coordinates": [ [ -87.670743056999967, 41.973086773000027 ] ] } },
{ "type": "Feature", "properties": { "OBJECTID": 7524, "ID": "0010860657", "NAME": "PRESENCE SAINT JOSEPH HOSPITAL", "ADDRESS": "2900 NORTH LAKE SHORE DRIVE", "CITY": "CHICAGO", "STATE": "IL", "ZIP": "60657", "ZIP4": "NOT AVAILABLE", "TELEPHONE": "(773) 665-3000", "TYPE": "GENERAL ACUTE CARE", "STATUS": "OPEN", "POPULATION": 500, "COUNTY": "COOK", "COUNTYFIPS": "17031", "COUNTRY": "USA", "LATITUDE": 41.933820705000102, "LONGITUDE": -87.637069093999997, "NAICS_CODE": "622110", "NAICS_DESC": "GENERAL MEDICAL AND SURGICAL HOSPITALS", "SOURCE": "https:\/\/data.illinois.gov\/", "SOURCEDATE": "2018-08-09T00:00:00.000Z", "VAL_METHOD": "IMAGERY", "VAL_DATE": "2016-04-25T00:00:00.000Z", "WEBSITE": "http:\/\/www.presencehealth.org\/presence-saint-joseph-hospital-chicago", "STATE_ID": "140224", "ALT_NAME": "NOT AVAILABLE", "ST_FIPS": "17", "OWNER": "NON-PROFIT", "TTL_STAFF": -999, "BEDS": 500, "TRAUMA": "NOT AVAILABLE", "HELIPAD": "N" }, "geometry": { "type": "MultiPoint", "coordinates": [ [ -87.637069093999955, 41.933820705000073 ] ] } },
{ "type": "Feature", "properties": { "OBJECTID": 495, "ID": "0005560613", "NAME": "THOREK MEMORIAL HOSPITAL", "ADDRESS": "850 W IRVING PARK RD", "CITY": "CHICAGO", "STATE": "IL", "ZIP": "60613", "ZIP4": "NOT AVAILABLE", "TELEPHONE": "(312) 525-6780", "TYPE": "GENERAL ACUTE CARE", "STATUS": "OPEN", "POPULATION": 134, "COUNTY": "COOK", "COUNTYFIPS": "17031", "COUNTRY": "USA", "LATITUDE": 41.955189016000098, "LONGITUDE": -87.651621239999898, "NAICS_CODE": "622110", "NAICS_DESC": "GENERAL MEDICAL AND SURGICAL HOSPITALS", "SOURCE": "https:\/\/data.illinois.gov\/", "SOURCEDATE": "2018-08-09T00:00:00.000Z", "VAL_METHOD": "IMAGERY", "VAL_DATE": "2014-02-10T00:00:00.000Z", "WEBSITE": "http:\/\/www.thorek.org", "STATE_ID": "140115", "ALT_NAME": "NOT AVAILABLE", "ST_FIPS": "17", "OWNER": "NON-PROFIT", "TTL_STAFF": -999, "BEDS": 134, "TRAUMA": "NOT AVAILABLE", "HELIPAD": "N" }, "geometry": { "type": "MultiPoint", "coordinates": [ [ -87.651621239999955, 41.955189016000062 ] ] } },
{ "type": "Feature", "properties": { "OBJECTID": 499, "ID": "0009060657", "NAME": "ADVOCATE ILLINOIS MASONIC MEDICAL CENTER", "ADDRESS": "836 WEST WELLINGTON AVENUE", "CITY": "CHICAGO", "STATE": "IL", "ZIP": "60657", "ZIP4": "NOT AVAILABLE", "TELEPHONE": "(773) 975-1600", "TYPE": "GENERAL ACUTE CARE", "STATUS": "OPEN", "POPULATION": 330, "COUNTY": "COOK", "COUNTYFIPS": "17031", "COUNTRY": "USA", "LATITUDE": 41.936740848000099, "LONGITUDE": -87.651371663000006, "NAICS_CODE": "622110", "NAICS_DESC": "GENERAL MEDICAL AND SURGICAL HOSPITALS", "SOURCE": "https:\/\/data.illinois.gov\/", "SOURCEDATE": "2018-08-09T00:00:00.000Z", "VAL_METHOD": "IMAGERY\/OTHER", "VAL_DATE": "2014-02-10T00:00:00.000Z", "WEBSITE": "http:\/\/www.advocatehealth.com\/masonic", "STATE_ID": "140182", "ALT_NAME": "NOT AVAILABLE", "ST_FIPS": "17", "OWNER": "NON-PROFIT", "TTL_STAFF": -999, "BEDS": 330, "TRAUMA": "LEVEL I", "HELIPAD": "N" }, "geometry": { "type": "MultiPoint", "coordinates": [ [ -87.651371662999964, 41.936740848000049 ] ] } },
{ "type": "Feature", "properties": { "OBJECTID": 4116, "ID": "0007360612", "NAME": "UNIVERSITY OF ILLINOIS HOSPITAL", "ADDRESS": "1740 WEST TAYLOR ST, SUITE 1400", "CITY": "CHICAGO", "STATE": "IL", "ZIP": "60612", "ZIP4": "NOT AVAILABLE", "TELEPHONE": "(312) 996-3900", "TYPE": "GENERAL ACUTE CARE", "STATUS": "OPEN", "POPULATION": 483, "COUNTY": "COOK", "COUNTYFIPS": "17031", "COUNTRY": "USA", "LATITUDE": 41.869668773999997, "LONGITUDE": -87.670515372999901, "NAICS_CODE": "622110", "NAICS_DESC": "GENERAL MEDICAL AND SURGICAL HOSPITALS", "SOURCE": "https:\/\/data.illinois.gov\/", "SOURCEDATE": "2018-08-09T00:00:00.000Z", "VAL_METHOD": "IMAGERY", "VAL_DATE": "2014-01-16T00:00:00.000Z", "WEBSITE": "http:\/\/www.hospital.uillinois.edu\/", "STATE_ID": "140150", "ALT_NAME": "NOT AVAILABLE", "ST_FIPS": "17", "OWNER": "GOVERNMENT - STATE", "TTL_STAFF": -999, "BEDS": 483, "TRAUMA": "NOT AVAILABLE", "HELIPAD": "N" }, "geometry": { "type": "MultiPoint", "coordinates": [ [ -87.670515372999944, 41.86966877400004 ] ] } },
{ "type": "Feature", "properties": { "OBJECTID": 4532, "ID": "0007460624", "NAME": "SACRED HEART HOSPITAL", "ADDRESS": "3240 W FRANKLIN BLVD", "CITY": "CHICAGO", "STATE": "IL", "ZIP": "60624", "ZIP4": "NOT AVAILABLE", "TELEPHONE": "(773) 722-3020", "TYPE": "GENERAL ACUTE CARE", "STATUS": "CLOSED", "POPULATION": 119, "COUNTY": "COOK", "COUNTYFIPS": "17031", "COUNTRY": "USA", "LATITUDE": 41.890621514000003, "LONGITUDE": -87.707878468999994, "NAICS_CODE": "622110", "NAICS_DESC": "GENERAL MEDICAL AND SURGICAL HOSPITALS", "SOURCE": "https:\/\/data.illinois.gov\/", "SOURCEDATE": "2012-07-27T00:00:00.000Z", "VAL_METHOD": "IMAGERY", "VAL_DATE": "2014-01-21T00:00:00.000Z", "WEBSITE": "www.sacredheartchicago.com", "STATE_ID": "140151", "ALT_NAME": "NOT AVAILABLE", "ST_FIPS": "17", "OWNER": "PROPRIETARY", "TTL_STAFF": -999, "BEDS": 119, "TRAUMA": "NOT AVAILABLE", "HELIPAD": "N" }, "geometry": { "type": "MultiPoint", "coordinates": [ [ -87.707878468999979, 41.890621514000038 ] ] } },
{ "type": "Feature", "properties": { "OBJECTID": 3436, "ID": "0005960612", "NAME": "RUSH UNIVERSITY MEDICAL CENTER", "ADDRESS": "1653 WEST CONGRESS PARKWAY", "CITY": "CHICAGO", "STATE": "IL", "ZIP": "60612", "ZIP4": "NOT AVAILABLE", "TELEPHONE": "(312) 942-5000", "TYPE": "GENERAL ACUTE CARE", "STATUS": "OPEN", "POPULATION": 669, "COUNTY": "COOK", "COUNTYFIPS": "17031", "COUNTRY": "USA", "LATITUDE": 41.874571860000103, "LONGITUDE": -87.668909819000007, "NAICS_CODE": "622110", "NAICS_DESC": "GENERAL MEDICAL AND SURGICAL HOSPITALS", "SOURCE": "https:\/\/data.illinois.gov\/", "SOURCEDATE": "2018-08-09T00:00:00.000Z", "VAL_METHOD": "IMAGERY", "VAL_DATE": "2014-02-10T00:00:00.000Z", "WEBSITE": "http:\/\/www.rush.edu", "STATE_ID": "140119", "ALT_NAME": "NOT AVAILABLE", "ST_FIPS": "17", "OWNER": "NON-PROFIT", "TTL_STAFF": -999, "BEDS": 669, "TRAUMA": "NOT AVAILABLE", "HELIPAD": "Y" }, "geometry": { "type": "MultiPoint", "coordinates": [ [ -87.668909818999964, 41.874571860000053 ] ] } },
{ "type": "Feature", "properties": { "OBJECTID": 496, "ID": "0006260612", "NAME": "JOHN H STROGER JR HOSPITAL", "ADDRESS": "1901 W HARRISON ST", "CITY": "CHICAGO", "STATE": "IL", "ZIP": "60612", "ZIP4": "NOT AVAILABLE", "TELEPHONE": "(312) 864-6000", "TYPE": "GENERAL ACUTE CARE", "STATUS": "OPEN", "POPULATION": 460, "COUNTY": "COOK", "COUNTYFIPS": "17031", "COUNTRY": "USA", "LATITUDE": 41.872334867000099, "LONGITUDE": -87.674398458, "NAICS_CODE": "622110", "NAICS_DESC": "GENERAL MEDICAL AND SURGICAL HOSPITALS", "SOURCE": "https:\/\/data.illinois.gov\/", "SOURCEDATE": "2018-08-09T00:00:00.000Z", "VAL_METHOD": "IMAGERY", "VAL_DATE": "2014-03-12T00:00:00.000Z", "WEBSITE": "http:\/\/www.cookcountyhealth.net", "STATE_ID": "140124", "ALT_NAME": "NOT AVAILABLE", "ST_FIPS": "17", "OWNER": "GOVERNMENT - LOCAL", "TTL_STAFF": -999, "BEDS": 460, "TRAUMA": "LEVEL I, LEVEL I PEDIATRIC", "HELIPAD": "Y" }, "geometry": { "type": "MultiPoint", "coordinates": [ [ -87.674398457999985, 41.872334867000056 ] ] } },
{ "type": "Feature", "properties": { "OBJECTID": 7194, "ID": "0002060624", "NAME": "RML HEALTH PROVIDERS LIMITED PARTNERSHIP - DBA RML CHICAGO", "ADDRESS": "3435 WEST VAN BUREN STREET", "CITY": "CHICAGO", "STATE": "IL", "ZIP": "60624", "ZIP4": "NOT AVAILABLE", "TELEPHONE": "(773) 826-6400", "TYPE": "LONG TERM CARE", "STATUS": "OPEN", "POPULATION": 68, "COUNTY": "COOK", "COUNTYFIPS": "17031", "COUNTRY": "USA", "LATITUDE": 41.874944893000098, "LONGITUDE": -87.712272053999996, "NAICS_CODE": "622110", "NAICS_DESC": "GENERAL MEDICAL AND SURGICAL HOSPITALS", "SOURCE": "https:\/\/data.illinois.gov\/", "SOURCEDATE": "2018-08-09T00:00:00.000Z", "VAL_METHOD": "IMAGERY", "VAL_DATE": "2014-02-10T00:00:00.000Z", "WEBSITE": "http:\/\/www.rmlspecialtyhospital.org", "STATE_ID": "0005678", "ALT_NAME": "NOT AVAILABLE", "ST_FIPS": "17", "OWNER": "NON-PROFIT", "TTL_STAFF": -999, "BEDS": 68, "TRAUMA": "NOT AVAILABLE", "HELIPAD": "N" }, "geometry": { "type": "MultiPoint", "coordinates": [ [ -87.712272053999968, 41.874944893000077 ] ] } },
{ "type": "Feature", "properties": { "OBJECTID": 6354, "ID": "0001060608", "NAME": "MT SINAI HOSPITAL MEDICAL CENTER", "ADDRESS": "15TH STREET AT CALIFORNIA", "CITY": "CHICAGO", "STATE": "IL", "ZIP": "60608", "ZIP4": "NOT AVAILABLE", "TELEPHONE": "(773) 257-6434", "TYPE": "GENERAL ACUTE CARE", "STATUS": "OPEN", "POPULATION": 290, "COUNTY": "COOK", "COUNTYFIPS": "17031", "COUNTRY": "USA", "LATITUDE": 41.860809726000099, "LONGITUDE": -87.694338583000004, "NAICS_CODE": "622110", "NAICS_DESC": "GENERAL MEDICAL AND SURGICAL HOSPITALS", "SOURCE": "https:\/\/data.illinois.gov\/", "SOURCEDATE": "2018-08-09T00:00:00.000Z", "VAL_METHOD": "IMAGERY", "VAL_DATE": "2016-04-25T00:00:00.000Z", "WEBSITE": "http:\/\/www.sinai.org", "STATE_ID": "140018", "ALT_NAME": "NOT AVAILABLE", "ST_FIPS": "17", "OWNER": "NON-PROFIT", "TTL_STAFF": -999, "BEDS": 290, "TRAUMA": "LEVEL I", "HELIPAD": "N" }, "geometry": { "type": "MultiPoint", "coordinates": [ [ -87.69433858299999, 41.860809726000078 ] ] } },
{ "type": "Feature", "properties": { "OBJECTID": 2505, "ID": "0004860623", "NAME": "SAINT ANTHONY HOSPITAL", "ADDRESS": "2875 WEST 19TH STREET", "CITY": "CHICAGO", "STATE": "IL", "ZIP": "60623", "ZIP4": "NOT AVAILABLE", "TELEPHONE": "(773) 484-1000", "TYPE": "GENERAL ACUTE CARE", "STATUS": "OPEN", "POPULATION": 151, "COUNTY": "COOK", "COUNTYFIPS": "17031", "COUNTRY": "USA", "LATITUDE": 41.855214533999998, "LONGITUDE": -87.698276962999998, "NAICS_CODE": "622110", "NAICS_DESC": "GENERAL MEDICAL AND SURGICAL HOSPITALS", "SOURCE": "https:\/\/data.illinois.gov\/", "SOURCEDATE": "2018-08-09T00:00:00.000Z", "VAL_METHOD": "IMAGERY", "VAL_DATE": "2014-02-10T00:00:00.000Z", "WEBSITE": "http:\/\/www.saintanthonyhospital.org", "STATE_ID": "140095", "ALT_NAME": "NOT AVAILABLE", "ST_FIPS": "17", "OWNER": "NON-PROFIT", "TTL_STAFF": -999, "BEDS": 151, "TRAUMA": "NOT AVAILABLE", "HELIPAD": "N" }, "geometry": { "type": "MultiPoint", "coordinates": [ [ -87.698276962999955, 41.855214534000034 ] ] } },
{ "type": "Feature", "properties": { "OBJECTID": 497, "ID": "0007660616", "NAME": "MERCY HOSPITAL AND MEDICAL CENTER", "ADDRESS": "2525 S MICHIGAN AVE", "CITY": "CHICAGO", "STATE": "IL", "ZIP": "60616", "ZIP4": "NOT AVAILABLE", "TELEPHONE": "(312) 567-2000", "TYPE": "GENERAL ACUTE CARE", "STATUS": "OPEN", "POPULATION": 421, "COUNTY": "COOK", "COUNTYFIPS": "17031", "COUNTRY": "USA", "LATITUDE": 41.846889583000099, "LONGITUDE": -87.621491598000006, "NAICS_CODE": "622110", "NAICS_DESC": "GENERAL MEDICAL AND SURGICAL HOSPITALS", "SOURCE": "https:\/\/data.illinois.gov\/", "SOURCEDATE": "2018-08-09T00:00:00.000Z", "VAL_METHOD": "IMAGERY", "VAL_DATE": "2014-02-10T00:00:00.000Z", "WEBSITE": "http:\/\/www.mercy-chicago.org", "STATE_ID": "140158", "ALT_NAME": "NOT AVAILABLE", "ST_FIPS": "17", "OWNER": "NON-PROFIT", "TTL_STAFF": -999, "BEDS": 421, "TRAUMA": "NOT AVAILABLE", "HELIPAD": "N" }, "geometry": { "type": "MultiPoint", "coordinates": [ [ -87.62149159799999, 41.846889583000049 ] ] } },
{ "type": "Feature", "properties": { "OBJECTID": 507, "ID": "0013160615", "NAME": "PROVIDENT HOSPITAL OF CHICAGO", "ADDRESS": "500 E 51ST ST", "CITY": "CHICAGO", "STATE": "IL", "ZIP": "60615", "ZIP4": "NOT AVAILABLE", "TELEPHONE": "(312) 572-2000", "TYPE": "GENERAL ACUTE CARE", "STATUS": "OPEN", "POPULATION": 25, "COUNTY": "COOK", "COUNTYFIPS": "17031", "COUNTRY": "USA", "LATITUDE": 41.802675013000098, "LONGITUDE": -87.613323871999995, "NAICS_CODE": "622110", "NAICS_DESC": "GENERAL MEDICAL AND SURGICAL HOSPITALS", "SOURCE": "https:\/\/data.illinois.gov\/", "SOURCEDATE": "2018-08-09T00:00:00.000Z", "VAL_METHOD": "IMAGERY", "VAL_DATE": "2014-02-10T00:00:00.000Z", "WEBSITE": "http:\/\/www.ccbhs.org\/pages\/ProvidentHospitalofCookCounty.htm", "STATE_ID": "140300", "ALT_NAME": "NOT AVAILABLE", "ST_FIPS": "17", "OWNER": "GOVERNMENT - LOCAL", "TTL_STAFF": -999, "BEDS": 25, "TRAUMA": "NOT AVAILABLE", "HELIPAD": "N" }, "geometry": { "type": "MultiPoint", "coordinates": [ [ -87.613323871999967, 41.802675013000048 ] ] } },
{ "type": "Feature", "properties": { "OBJECTID": 3437, "ID": "0008660649", "NAME": "JACKSON PARK HOSPITAL", "ADDRESS": "7531 S STONY ISLAND AVE", "CITY": "CHICAGO", "STATE": "IL", "ZIP": "60649", "ZIP4": "NOT AVAILABLE", "TELEPHONE": "(773) 947-7500", "TYPE": "GENERAL ACUTE CARE", "STATUS": "OPEN", "POPULATION": 260, "COUNTY": "COOK", "COUNTYFIPS": "17031", "COUNTRY": "USA", "LATITUDE": 41.757730612000003, "LONGITUDE": -87.585235064000003, "NAICS_CODE": "622110", "NAICS_DESC": "GENERAL MEDICAL AND SURGICAL HOSPITALS", "SOURCE": "https:\/\/data.illinois.gov\/", "SOURCEDATE": "2018-08-09T00:00:00.000Z", "VAL_METHOD": "IMAGERY", "VAL_DATE": "2014-02-10T00:00:00.000Z", "WEBSITE": "http:\/\/www.jacksonparkhospital.org", "STATE_ID": "140177", "ALT_NAME": "NOT AVAILABLE", "ST_FIPS": "17", "OWNER": "NON-PROFIT", "TTL_STAFF": -999, "BEDS": 260, "TRAUMA": "NOT AVAILABLE", "HELIPAD": "N" }, "geometry": { "type": "MultiPoint", "coordinates": [ [ -87.585235063999974, 41.757730612000046 ] ] } },
{ "type": "Feature", "properties": { "OBJECTID": 3439, "ID": "0008960617", "NAME": "SOUTH SHORE HOSPITAL", "ADDRESS": "8012 SOUTH CRANDON AVENUE", "CITY": "CHICAGO", "STATE": "IL", "ZIP": "60617", "ZIP4": "NOT AVAILABLE", "TELEPHONE": "(773) 768-0810", "TYPE": "GENERAL ACUTE CARE", "STATUS": "OPEN", "POPULATION": 137, "COUNTY": "COOK", "COUNTYFIPS": "17031", "COUNTRY": "USA", "LATITUDE": 41.749327393999998, "LONGITUDE": -87.568996878999897, "NAICS_CODE": "622110", "NAICS_DESC": "GENERAL MEDICAL AND SURGICAL HOSPITALS", "SOURCE": "https:\/\/data.illinois.gov\/", "SOURCEDATE": "2018-08-09T00:00:00.000Z", "VAL_METHOD": "IMAGERY", "VAL_DATE": "2014-02-10T00:00:00.000Z", "WEBSITE": "http:\/\/www.southshorehospital.com", "STATE_ID": "140181", "ALT_NAME": "NOT AVAILABLE", "ST_FIPS": "17", "OWNER": "NON-PROFIT", "TTL_STAFF": -999, "BEDS": 137, "TRAUMA": "NOT AVAILABLE", "HELIPAD": "N" }, "geometry": { "type": "MultiPoint", "coordinates": [ [ -87.56899687899994, 41.749327394000034 ] ] } },
{ "type": "Feature", "properties": { "OBJECTID": 931, "ID": "0002260617", "NAME": "ADVOCATE TRINITY HOSPITAL", "ADDRESS": "2320 E 93RD ST", "CITY": "CHICAGO", "STATE": "IL", "ZIP": "60617", "ZIP4": "NOT AVAILABLE", "TELEPHONE": "(773) 967-2000", "TYPE": "GENERAL ACUTE CARE", "STATUS": "OPEN", "POPULATION": 188, "COUNTY": "COOK", "COUNTYFIPS": "17031", "COUNTRY": "USA", "LATITUDE": 41.726504393, "LONGITUDE": -87.567226180999995, "NAICS_CODE": "622110", "NAICS_DESC": "GENERAL MEDICAL AND SURGICAL HOSPITALS", "SOURCE": "https:\/\/data.illinois.gov\/", "SOURCEDATE": "2018-08-09T00:00:00.000Z", "VAL_METHOD": "IMAGERY", "VAL_DATE": "2016-04-25T00:00:00.000Z", "WEBSITE": "http:\/\/www.advocatehealth.com\/trinity", "STATE_ID": "140048", "ALT_NAME": "NOT AVAILABLE", "ST_FIPS": "17", "OWNER": "NON-PROFIT", "TTL_STAFF": -999, "BEDS": 188, "TRAUMA": "NOT AVAILABLE", "HELIPAD": "N" }, "geometry": { "type": "MultiPoint", "coordinates": [ [ -87.567226180999967, 41.72650439300002 ] ] } },
{ "type": "Feature", "properties": { "OBJECTID": 1516, "ID": "0003660628", "NAME": "ROSELAND COMMUNITY HOSPITAL", "ADDRESS": "45 W 111TH STREET", "CITY": "CHICAGO", "STATE": "IL", "ZIP": "60628", "ZIP4": "NOT AVAILABLE", "TELEPHONE": "(773) 995-3000", "TYPE": "GENERAL ACUTE CARE", "STATUS": "OPEN", "POPULATION": 115, "COUNTY": "COOK", "COUNTYFIPS": "17031", "COUNTRY": "USA", "LATITUDE": 41.692226444, "LONGITUDE": -87.625355677999906, "NAICS_CODE": "622110", "NAICS_DESC": "GENERAL MEDICAL AND SURGICAL HOSPITALS", "SOURCE": "https:\/\/data.illinois.gov\/", "SOURCEDATE": "2018-08-09T00:00:00.000Z", "VAL_METHOD": "IMAGERY", "VAL_DATE": "2014-02-10T00:00:00.000Z", "WEBSITE": "http:\/\/www.roselandhospital.org", "STATE_ID": "140068", "ALT_NAME": "NOT AVAILABLE", "ST_FIPS": "17", "OWNER": "NON-PROFIT", "TTL_STAFF": -999, "BEDS": 115, "TRAUMA": "NOT AVAILABLE", "HELIPAD": "N" }, "geometry": { "type": "MultiPoint", "coordinates": [ [ -87.625355677999934, 41.692226444000028 ] ] } },
{ "type": "Feature", "properties": { "OBJECTID": 4533, "ID": "0099760622", "NAME": "PRESENCE SAINT ELIZABETH HOSPITAL", "ADDRESS": "1431 N. CLAREMONT AVENUE", "CITY": "CHICAGO", "STATE": "IL", "ZIP": "60622", "ZIP4": "NOT AVAILABLE", "TELEPHONE": "(312) 770-2000", "TYPE": "GENERAL ACUTE CARE", "STATUS": "OPEN", "POPULATION": 493, "COUNTY": "COOK", "COUNTYFIPS": "17031", "COUNTRY": "USA", "LATITUDE": 41.907585583000099, "LONGITUDE": -87.6863100959999, "NAICS_CODE": "622110", "NAICS_DESC": "GENERAL MEDICAL AND SURGICAL HOSPITALS", "SOURCE": "https:\/\/data.illinois.gov\/", "SOURCEDATE": "2018-08-09T00:00:00.000Z", "VAL_METHOD": "IMAGERY\/OTHER", "VAL_DATE": "2015-02-21T00:00:00.000Z", "WEBSITE": "http:\/\/www.presencehealth.org\/presence-saints-mary-and-elizabeth-medical-center-chicago", "STATE_ID": "NOT AVAILABLE", "ALT_NAME": "NOT AVAILABLE", "ST_FIPS": "17", "OWNER": "NON-PROFIT", "TTL_STAFF": -999, "BEDS": 493, "TRAUMA": "NOT AVAILABLE", "HELIPAD": "N" }, "geometry": { "type": "MultiPoint", "coordinates": [ [ -87.686310095999943, 41.907585583000056 ] ] } },
{ "type": "Feature", "properties": { "OBJECTID": 3440, "ID": "0010060622", "NAME": "NORWEGIAN-AMERICAN HOSPITAL", "ADDRESS": "1044 N FRANCISCO AVE", "CITY": "CHICAGO", "STATE": "IL", "ZIP": "60622", "ZIP4": "NOT AVAILABLE", "TELEPHONE": "(773) 292-8200", "TYPE": "GENERAL ACUTE CARE", "STATUS": "OPEN", "POPULATION": 155, "COUNTY": "COOK", "COUNTYFIPS": "17031", "COUNTRY": "USA", "LATITUDE": 41.900799838000097, "LONGITUDE": -87.699095477, "NAICS_CODE": "622110", "NAICS_DESC": "GENERAL MEDICAL AND SURGICAL HOSPITALS", "SOURCE": "https:\/\/data.illinois.gov\/", "SOURCEDATE": "2018-08-09T00:00:00.000Z", "VAL_METHOD": "IMAGERY", "VAL_DATE": "2014-02-10T00:00:00.000Z", "WEBSITE": "www.nahospital.org", "STATE_ID": "140206", "ALT_NAME": "NOT AVAILABLE", "ST_FIPS": "17", "OWNER": "NON-PROFIT", "TTL_STAFF": -999, "BEDS": 155, "TRAUMA": "NOT AVAILABLE", "HELIPAD": "N" }, "geometry": { "type": "MultiPoint", "coordinates": [ [ -87.699095476999958, 41.900799838000054 ] ] } },
{ "type": "Feature", "properties": { "OBJECTID": 930, "ID": "0099860622", "NAME": "PRESENCE SAINT MARY OF NAZARETH HOSPITAL CENTER", "ADDRESS": "2233 WEST DIVISION STREET", "CITY": "CHICAGO", "STATE": "IL", "ZIP": "60622", "ZIP4": "NOT AVAILABLE", "TELEPHONE": "(312) 770-2000", "TYPE": "GENERAL ACUTE CARE", "STATUS": "OPEN", "POPULATION": 493, "COUNTY": "COOK", "COUNTYFIPS": "17031", "COUNTRY": "USA", "LATITUDE": 41.902532608000101, "LONGITUDE": -87.683276586999995, "NAICS_CODE": "622110", "NAICS_DESC": "GENERAL MEDICAL AND SURGICAL HOSPITALS", "SOURCE": "https:\/\/data.illinois.gov\/", "SOURCEDATE": "2018-08-09T00:00:00.000Z", "VAL_METHOD": "IMAGERY\/OTHER", "VAL_DATE": "2016-04-25T00:00:00.000Z", "WEBSITE": "http:\/\/www.presencehealth.org\/presence-saints-mary-and-elizabeth-medical-center-chicago", "STATE_ID": "NOT AVAILABLE", "ALT_NAME": "NOT AVAILABLE", "ST_FIPS": "17", "OWNER": "NON-PROFIT", "TTL_STAFF": -999, "BEDS": 493, "TRAUMA": "NOT AVAILABLE", "HELIPAD": "Y" }, "geometry": { "type": "MultiPoint", "coordinates": [ [ -87.683276586999952, 41.902532608000051 ] ] } },
{ "type": "Feature", "properties": { "OBJECTID": 7200, "ID": "0006660629", "NAME": "HOLY CROSS HOSPITAL", "ADDRESS": "2701 W 68TH STREET", "CITY": "CHICAGO", "STATE": "IL", "ZIP": "60629", "ZIP4": "NOT AVAILABLE", "TELEPHONE": "(773) 471-8000", "TYPE": "GENERAL ACUTE CARE", "STATUS": "OPEN", "POPULATION": 160, "COUNTY": "COOK", "COUNTYFIPS": "17031", "COUNTRY": "USA", "LATITUDE": 41.769406691, "LONGITUDE": -87.692380329999907, "NAICS_CODE": "622110", "NAICS_DESC": "GENERAL MEDICAL AND SURGICAL HOSPITALS", "SOURCE": "https:\/\/data.illinois.gov\/", "SOURCEDATE": "2018-08-09T00:00:00.000Z", "VAL_METHOD": "IMAGERY", "VAL_DATE": "2014-01-16T00:00:00.000Z", "WEBSITE": "http:\/\/www.holycrosshospital.org", "STATE_ID": "140133", "ALT_NAME": "NOT AVAILABLE", "ST_FIPS": "17", "OWNER": "PROPRIETARY", "TTL_STAFF": -999, "BEDS": 160, "TRAUMA": "NOT AVAILABLE", "HELIPAD": "N" }, "geometry": { "type": "MultiPoint", "coordinates": [ [ -87.692380329999935, 41.769406691000029 ] ] } },
{ "type": "Feature", "properties": { "OBJECTID": 7197, "ID": "0005160621", "NAME": "ST BERNARD HOSPITAL", "ADDRESS": "326 W 64TH ST", "CITY": "CHICAGO", "STATE": "IL", "ZIP": "60621", "ZIP4": "NOT AVAILABLE", "TELEPHONE": "(773) 962-3900", "TYPE": "GENERAL ACUTE CARE", "STATUS": "OPEN", "POPULATION": 100, "COUNTY": "COOK", "COUNTYFIPS": "17031", "COUNTRY": "USA", "LATITUDE": 41.778394561, "LONGITUDE": -87.633601338999895, "NAICS_CODE": "622110", "NAICS_DESC": "GENERAL MEDICAL AND SURGICAL HOSPITALS", "SOURCE": "https:\/\/data.illinois.gov\/", "SOURCEDATE": "2018-08-09T00:00:00.000Z", "VAL_METHOD": "IMAGERY", "VAL_DATE": "2014-02-10T00:00:00.000Z", "WEBSITE": "http:\/\/www.stbernardhospital.com", "STATE_ID": "140103", "ALT_NAME": "NOT AVAILABLE", "ST_FIPS": "17", "OWNER": "NON-PROFIT", "TTL_STAFF": -999, "BEDS": 100, "TRAUMA": "NOT AVAILABLE", "HELIPAD": "N" }, "geometry": { "type": "MultiPoint", "coordinates": [ [ -87.633601338999938, 41.778394561000034 ] ] } },
{ "type": "Feature", "properties": { "OBJECTID": 493, "ID": "0004360637", "NAME": "THE UNIVERSITY OF CHICAGO MEDICAL CENTER", "ADDRESS": "5841 SOUTH MARYLAND", "CITY": "CHICAGO", "STATE": "IL", "ZIP": "60637", "ZIP4": "NOT AVAILABLE", "TELEPHONE": "(773) 702-1000", "TYPE": "GENERAL ACUTE CARE", "STATUS": "OPEN", "POPULATION": 577, "COUNTY": "COOK", "COUNTYFIPS": "17031", "COUNTRY": "USA", "LATITUDE": 41.788746851, "LONGITUDE": -87.604337126000004, "NAICS_CODE": "622110", "NAICS_DESC": "GENERAL MEDICAL AND SURGICAL HOSPITALS", "SOURCE": "https:\/\/data.illinois.gov\/", "SOURCEDATE": "2018-08-09T00:00:00.000Z", "VAL_METHOD": "IMAGERY", "VAL_DATE": "2014-03-12T00:00:00.000Z", "WEBSITE": "http:\/\/www.uchospitals.edu", "STATE_ID": "140088", "ALT_NAME": "NOT AVAILABLE", "ST_FIPS": "17", "OWNER": "NON-PROFIT", "TTL_STAFF": -999, "BEDS": 577, "TRAUMA": "LEVEL I PEDIATRIC", "HELIPAD": "Y" }, "geometry": { "type": "MultiPoint", "coordinates": [ [ -87.604337125999962, 41.788746851000035 ] ] } },
{ "type": "Feature", "properties": { "OBJECTID": 505, "ID": "0012360611", "NAME": "NORTHWESTERN MEMORIAL HOSPITAL", "ADDRESS": "251 E HURON ST", "CITY": "CHICAGO", "STATE": "IL", "ZIP": "60611", "ZIP4": "NOT AVAILABLE", "TELEPHONE": "(312) 926-2000", "TYPE": "GENERAL ACUTE CARE", "STATUS": "OPEN", "POPULATION": 885, "COUNTY": "COOK", "COUNTYFIPS": "17031", "COUNTRY": "USA", "LATITUDE": 41.894607713, "LONGITUDE": -87.621024366, "NAICS_CODE": "622110", "NAICS_DESC": "GENERAL MEDICAL AND SURGICAL HOSPITALS", "SOURCE": "https:\/\/data.illinois.gov\/", "SOURCEDATE": "2018-08-09T00:00:00.000Z", "VAL_METHOD": "IMAGERY", "VAL_DATE": "2014-02-10T00:00:00.000Z", "WEBSITE": "http:\/\/www.nmh.org", "STATE_ID": "140281", "ALT_NAME": "NOT AVAILABLE", "ST_FIPS": "17", "OWNER": "NON-PROFIT", "TTL_STAFF": -999, "BEDS": 885, "TRAUMA": "LEVEL I", "HELIPAD": "N" }, "geometry": { "type": "MultiPoint", "coordinates": [ [ -87.621024365999972, 41.894607713000021 ] ] } },
{ "type": "Feature", "properties": { "OBJECTID": 7198, "ID": "0005460625", "NAME": "SWEDISH COVENANT HOSPITAL", "ADDRESS": "5145 N CALIFORNIA AVE", "CITY": "CHICAGO", "STATE": "IL", "ZIP": "60625", "ZIP4": "NOT AVAILABLE", "TELEPHONE": "(773) 878-8200", "TYPE": "GENERAL ACUTE CARE", "STATUS": "OPEN", "POPULATION": 279, "COUNTY": "COOK", "COUNTYFIPS": "17031", "COUNTRY": "USA", "LATITUDE": 41.975351554, "LONGITUDE": -87.69946587, "NAICS_CODE": "622110", "NAICS_DESC": "GENERAL MEDICAL AND SURGICAL HOSPITALS", "SOURCE": "https:\/\/data.illinois.gov\/", "SOURCEDATE": "2018-08-09T00:00:00.000Z", "VAL_METHOD": "IMAGERY", "VAL_DATE": "2014-02-10T00:00:00.000Z", "WEBSITE": "http:\/\/www.schosp.org", "STATE_ID": "140114", "ALT_NAME": "NOT AVAILABLE", "ST_FIPS": "17", "OWNER": "NON-PROFIT", "TTL_STAFF": -999, "BEDS": 279, "TRAUMA": "NOT AVAILABLE", "HELIPAD": "N" }, "geometry": { "type": "MultiPoint", "coordinates": [ [ -87.699465869999983, 41.975351554000035 ] ] } },
{ "type": "Feature", "properties": { "OBJECTID": 7199, "ID": "0005760631", "NAME": "RESURRECTION MEDICAL CENTER", "ADDRESS": "7435 W TALCOTT AVENUE", "CITY": "CHICAGO", "STATE": "IL", "ZIP": "60631", "ZIP4": "NOT AVAILABLE", "TELEPHONE": "(773) 774-8000", "TYPE": "GENERAL ACUTE CARE", "STATUS": "OPEN", "POPULATION": 402, "COUNTY": "COOK", "COUNTYFIPS": "17031", "COUNTRY": "USA", "LATITUDE": 41.987500292000099, "LONGITUDE": -87.813545819999902, "NAICS_CODE": "622110", "NAICS_DESC": "GENERAL MEDICAL AND SURGICAL HOSPITALS", "SOURCE": "https:\/\/data.illinois.gov\/", "SOURCEDATE": "2018-08-09T00:00:00.000Z", "VAL_METHOD": "IMAGERY", "VAL_DATE": "2014-03-12T00:00:00.000Z", "WEBSITE": "http:\/\/www.reshealthcare.org", "STATE_ID": "140117", "ALT_NAME": "NOT AVAILABLE", "ST_FIPS": "17", "OWNER": "NON-PROFIT", "TTL_STAFF": -999, "BEDS": 402, "TRAUMA": "NOT AVAILABLE", "HELIPAD": "Y" }, "geometry": { "type": "MultiPoint", "coordinates": [ [ -87.813545819999945, 41.98750029200005 ] ] } },
{ "type": "Feature", "properties": { "OBJECTID": 1891, "ID": "0011760634", "NAME": "COMMUNITY FIRST MEDICAL CENTER", "ADDRESS": "5645 W ADDISON", "CITY": "CHICAGO", "STATE": "IL", "ZIP": "60634", "ZIP4": "NOT AVAILABLE", "TELEPHONE": "(773) 282-7000", "TYPE": "GENERAL ACUTE CARE", "STATUS": "OPEN", "POPULATION": 279, "COUNTY": "COOK", "COUNTYFIPS": "17031", "COUNTRY": "USA", "LATITUDE": 41.945445508, "LONGITUDE": -87.7678359129999, "NAICS_CODE": "622110", "NAICS_DESC": "GENERAL MEDICAL AND SURGICAL HOSPITALS", "SOURCE": "https:\/\/data.illinois.gov\/", "SOURCEDATE": "2018-08-09T00:00:00.000Z", "VAL_METHOD": "IMAGERY", "VAL_DATE": "2014-02-10T00:00:00.000Z", "WEBSITE": "http:\/\/www.presencehealth.org", "STATE_ID": "140251", "ALT_NAME": "NOT AVAILABLE", "ST_FIPS": "17", "OWNER": "NON-PROFIT", "TTL_STAFF": -999, "BEDS": 279, "TRAUMA": "NOT AVAILABLE", "HELIPAD": "N" }, "geometry": { "type": "MultiPoint", "coordinates": [ [ -87.767835912999956, 41.945445508000034 ] ] } },
{ "type": "Feature", "properties": { "OBJECTID": 5264, "ID": "0003160641", "NAME": "THC CHICAGO, INC. - DBA KINDRED HOSPITAL - CENTRAL", "ADDRESS": "4058 WEST MELROSE STREET", "CITY": "CHICAGO", "STATE": "IL", "ZIP": "60641", "ZIP4": "NOT AVAILABLE", "TELEPHONE": "(773) 481-5708", "TYPE": "LONG TERM CARE", "STATUS": "OPEN", "POPULATION": 54, "COUNTY": "COOK", "COUNTYFIPS": "17031", "COUNTRY": "USA", "LATITUDE": 41.940246575000103, "LONGITUDE": -87.728643694, "NAICS_CODE": "622110", "NAICS_DESC": "GENERAL MEDICAL AND SURGICAL HOSPITALS", "SOURCE": "https:\/\/data.illinois.gov\/", "SOURCEDATE": "2018-08-09T00:00:00.000Z", "VAL_METHOD": "IMAGERY\/OTHER", "VAL_DATE": "2014-02-10T00:00:00.000Z", "WEBSITE": "http:\/\/www.khchicagocentral.com", "STATE_ID": "0004564", "ALT_NAME": "NOT AVAILABLE", "ST_FIPS": "17", "OWNER": "PROPRIETARY", "TTL_STAFF": -999, "BEDS": 54, "TRAUMA": "NOT AVAILABLE", "HELIPAD": "N" }, "geometry": { "type": "MultiPoint", "coordinates": [ [ -87.72864369399997, 41.94024657500006 ] ] } }
]
}
