{
"type": "FeatureCollection",
"features": [
{ "type": "Feature", "properties": { "FID": 46, "Hospital": "Northwest Community Hospital", "StreetAddress": "800 West Central Road", "City": "Arlington Heights", "ZIP_Code": 60005, "X": -87.991039, "Y": 42.066594, "Total_Bed": 509, "AvailableBed": 229, "Bed_in_Use": 280, "Adult_ICU_Bed": 127, "Total_Vent": 41, "Available_Vent": 24, "Vent_in_Use": 17, "CovidConfirmedPatient": 239, "CovidPatient_in_ICU": 13, "CovidPatientVent": 9 }, "geometry": { "type": "Point", "coordinates": [ -87.991039, 42.066594 ] } },
{ "type": "Feature", "properties": { "FID": 65, "Hospital": "Alexian Brothers Medical Center", "StreetAddress": "800 Biesterfield Rd", "City": "Elk Grove Village", "ZIP_Code": 60007, "X": -88.016693, "Y": 42.003433, "Total_Bed": 401, "AvailableBed": 180, "Bed_in_Use": 221, "Adult_ICU_Bed": 100, "Total_Vent": 33, "Available_Vent": 19, "Vent_in_Use": 13, "CovidConfirmedPatient": 188, "CovidPatient_in_ICU": 11, "CovidPatientVent": 7 }, "geometry": { "type": "Point", "coordinates": [ -88.016693, 42.003433 ] } },
{ "type": "Feature", "properties": { "FID": 194, "Hospital": "Chicago Behavioral Hospital", "StreetAddress": "555 Wilson Lane", "City": "Des Plaines", "ZIP_Code": 60016, "X": -87.879254, "Y": 42.043888, "Total_Bed": 138, "AvailableBed": 62, "Bed_in_Use": 76, "Adult_ICU_Bed": 35, "Total_Vent": 11, "Available_Vent": 7, "Vent_in_Use": 5, "CovidConfirmedPatient": 65, "CovidPatient_in_ICU": 4, "CovidPatientVent": 3 }, "geometry": { "type": "Point", "coordinates": [ -87.879254, 42.043888 ] } },
{ "type": "Feature", "properties": { "FID": 203, "Hospital": "Presence Holy Family Medical Center", "StreetAddress": "100 North River Road", "City": "Des Plaines", "ZIP_Code": 60016, "X": -87.869807, "Y": 42.05575, "Total_Bed": 178, "AvailableBed": 80, "Bed_in_Use": 98, "Adult_ICU_Bed": 45, "Total_Vent": 14, "Available_Vent": 9, "Vent_in_Use": 6, "CovidConfirmedPatient": 84, "CovidPatient_in_ICU": 5, "CovidPatientVent": 3 }, "geometry": { "type": "Point", "coordinates": [ -87.869807, 42.05575 ] } },
{ "type": "Feature", "properties": { "FID": 96, "Hospital": "Glenbrook Hospital", "StreetAddress": "2100 Pfingsten Road", "City": "Glenview", "ZIP_Code": 60026, "X": -87.849217, "Y": 42.092016, "Total_Bed": 173, "AvailableBed": 78, "Bed_in_Use": 95, "Adult_ICU_Bed": 43, "Total_Vent": 14, "Available_Vent": 8, "Vent_in_Use": 6, "CovidConfirmedPatient": 81, "CovidPatient_in_ICU": 5, "CovidPatientVent": 3 }, "geometry": { "type": "Point", "coordinates": [ -87.849217, 42.092016 ] } },
{ "type": "Feature", "properties": { "FID": 124, "Hospital": "Mercy Harvard Hospital, Inc.", "StreetAddress": "1001 Grant Street", "City": "Harvard", "ZIP_Code": 60033, "X": -88.607689, "Y": 42.426817, "Total_Bed": 50, "AvailableBed": 23, "Bed_in_Use": 27, "Adult_ICU_Bed": 13, "Total_Vent": 4, "Available_Vent": 2, "Vent_in_Use": 2, "CovidConfirmedPatient": 23, "CovidPatient_in_ICU": 1, "CovidPatientVent": 1 }, "geometry": { "type": "Point", "coordinates": [ -88.607689, 42.426817 ] } },
{ "type": "Feature", "properties": { "FID": 131, "Hospital": "Highland Park Hospital", "StreetAddress": "777 Park Ave W", "City": "Highland Park", "ZIP_Code": 60035, "X": -87.80813, "Y": 42.188837, "Total_Bed": 139, "AvailableBed": 63, "Bed_in_Use": 76, "Adult_ICU_Bed": 35, "Total_Vent": 11, "Available_Vent": 7, "Vent_in_Use": 5, "CovidConfirmedPatient": 65, "CovidPatient_in_ICU": 4, "CovidPatientVent": 3 }, "geometry": { "type": "Point", "coordinates": [ -87.80813, 42.188837 ] } },
{ "type": "Feature", "properties": { "FID": 169, "Hospital": "Northwestern Lake Forest Hospital", "StreetAddress": "1000 North Westmoreland Road", "City": "Lake Forest", "ZIP_Code": 60045, "X": -87.862862, "Y": 42.255779, "Total_Bed": 114, "AvailableBed": 51, "Bed_in_Use": 63, "Adult_ICU_Bed": 29, "Total_Vent": 9, "Available_Vent": 5, "Vent_in_Use": 4, "CovidConfirmedPatient": 54, "CovidPatient_in_ICU": 3, "CovidPatientVent": 2 }, "geometry": { "type": "Point", "coordinates": [ -87.862862, 42.255779 ] } },
{ "type": "Feature", "properties": { "FID": 99, "Hospital": "Northwestern Medicine McHenry Hospital", "StreetAddress": "4201 Medical Center Drive", "City": "McHenry", "ZIP_Code": 60050, "X": -88.279354, "Y": 42.318878, "Total_Bed": 157, "AvailableBed": 71, "Bed_in_Use": 86, "Adult_ICU_Bed": 39, "Total_Vent": 13, "Available_Vent": 8, "Vent_in_Use": 5, "CovidConfirmedPatient": 74, "CovidPatient_in_ICU": 4, "CovidPatientVent": 3 }, "geometry": { "type": "Point", "coordinates": [ -88.279354, 42.318878 ] } },
{ "type": "Feature", "properties": { "FID": 118, "Hospital": "Advocate Lutheran General Hospital", "StreetAddress": "1775 Dempster Street", "City": "Park Ridge", "ZIP_Code": 60068, "X": -87.848538, "Y": 42.039738, "Total_Bed": 638, "AvailableBed": 287, "Bed_in_Use": 351, "Adult_ICU_Bed": 160, "Total_Vent": 52, "Available_Vent": 31, "Vent_in_Use": 21, "CovidConfirmedPatient": 300, "CovidPatient_in_ICU": 17, "CovidPatientVent": 12 }, "geometry": { "type": "Point", "coordinates": [ -87.848538, 42.039738 ] } },
{ "type": "Feature", "properties": { "FID": 164, "Hospital": "Skokie Hospital", "StreetAddress": "9600 Gross Point Road", "City": "Skokie", "ZIP_Code": 60076, "X": -87.739954, "Y": 42.055357, "Total_Bed": 123, "AvailableBed": 55, "Bed_in_Use": 68, "Adult_ICU_Bed": 31, "Total_Vent": 10, "Available_Vent": 6, "Vent_in_Use": 4, "CovidConfirmedPatient": 58, "CovidPatient_in_ICU": 3, "CovidPatientVent": 2 }, "geometry": { "type": "Point", "coordinates": [ -87.739954, 42.055357 ] } },
{ "type": "Feature", "properties": { "FID": 151, "Hospital": "Vista Medical Center East", "StreetAddress": "1324 N Sheridan Road", "City": "Waukegan", "ZIP_Code": 60085, "X": -87.830943, "Y": 42.378132, "Total_Bed": 228, "AvailableBed": 103, "Bed_in_Use": 125, "Adult_ICU_Bed": 57, "Total_Vent": 19, "Available_Vent": 11, "Vent_in_Use": 8, "CovidConfirmedPatient": 107, "CovidPatient_in_ICU": 6, "CovidPatientVent": 4 }, "geometry": { "type": "Point", "coordinates": [ -87.830943, 42.378132 ] } },
{ "type": "Feature", "properties": { "FID": 210, "Hospital": "Lake Behavioral Hospital", "StreetAddress": "2615 Washington Street", "City": "Waukegan", "ZIP_Code": 60085, "X": -87.86627, "Y": 42.359384, "Total_Bed": 46, "AvailableBed": 21, "Bed_in_Use": 25, "Adult_ICU_Bed": 12, "Total_Vent": 4, "Available_Vent": 2, "Vent_in_Use": 2, "CovidConfirmedPatient": 22, "CovidPatient_in_ICU": 1, "CovidPatientVent": 1 }, "geometry": { "type": "Point", "coordinates": [ -87.86627, 42.359384 ] } },
{ "type": "Feature", "properties": { "FID": 110, "Hospital": "Northwestern Medicine Woodstock Hospital", "StreetAddress": "3701 Doty Road", "City": "Woodstock", "ZIP_Code": 60098, "X": -88.398939, "Y": 42.274451, "Total_Bed": 56, "AvailableBed": 25, "Bed_in_Use": 31, "Adult_ICU_Bed": 14, "Total_Vent": 5, "Available_Vent": 3, "Vent_in_Use": 2, "CovidConfirmedPatient": 26, "CovidPatient_in_ICU": 1, "CovidPatientVent": 1 }, "geometry": { "type": "Point", "coordinates": [ -88.398939, 42.274451 ] } },
{ "type": "Feature", "properties": { "FID": 84, "Hospital": "Midwestern Regional Medical Center", "StreetAddress": "2520 Elisha Avenue", "City": "Zion", "ZIP_Code": 60099, "X": -87.826908, "Y": 42.449391, "Total_Bed": 73, "AvailableBed": 33, "Bed_in_Use": 40, "Adult_ICU_Bed": 18, "Total_Vent": 6, "Available_Vent": 4, "Vent_in_Use": 2, "CovidConfirmedPatient": 34, "CovidPatient_in_ICU": 2, "CovidPatientVent": 1 }, "geometry": { "type": "Point", "coordinates": [ -87.826908, 42.449391 ] } },
{ "type": "Feature", "properties": { "FID": 157, "Hospital": "Kishwaukee Community Hospital", "StreetAddress": "One Kish Hospital Drive", "City": "DeKalb", "ZIP_Code": 60115, "X": -88.722452, "Y": 41.961642, "Total_Bed": 98, "AvailableBed": 44, "Bed_in_Use": 54, "Adult_ICU_Bed": 25, "Total_Vent": 8, "Available_Vent": 5, "Vent_in_Use": 3, "CovidConfirmedPatient": 46, "CovidPatient_in_ICU": 3, "CovidPatientVent": 2 }, "geometry": { "type": "Point", "coordinates": [ -88.722452, 41.961642 ] } },
{ "type": "Feature", "properties": { "FID": 122, "Hospital": "Presence Saint Joseph - Elgin", "StreetAddress": "77 North Airlite Street", "City": "Elgin", "ZIP_Code": 60123, "X": -88.328875, "Y": 42.03439, "Total_Bed": 184, "AvailableBed": 83, "Bed_in_Use": 101, "Adult_ICU_Bed": 46, "Total_Vent": 15, "Available_Vent": 9, "Vent_in_Use": 6, "CovidConfirmedPatient": 86, "CovidPatient_in_ICU": 5, "CovidPatientVent": 3 }, "geometry": { "type": "Point", "coordinates": [ -88.328875, 42.03439 ] } },
{ "type": "Feature", "properties": { "FID": 189, "Hospital": "Advocate Sherman Hospital", "StreetAddress": "1425 North Randall Road", "City": "Elgin", "ZIP_Code": 60123, "X": -88.33542, "Y": 42.06904, "Total_Bed": 255, "AvailableBed": 115, "Bed_in_Use": 140, "Adult_ICU_Bed": 64, "Total_Vent": 21, "Available_Vent": 12, "Vent_in_Use": 9, "CovidConfirmedPatient": 120, "CovidPatient_in_ICU": 7, "CovidPatientVent": 5 }, "geometry": { "type": "Point", "coordinates": [ -88.33542, 42.06904 ] } },
{ "type": "Feature", "properties": { "FID": 177, "Hospital": "Elmhurst Memorial Hospital", "StreetAddress": "155 East Brush Hill Road", "City": "Elmhurst", "ZIP_Code": 60126, "X": -87.935232, "Y": 41.861661, "Total_Bed": 259, "AvailableBed": 117, "Bed_in_Use": 142, "Adult_ICU_Bed": 65, "Total_Vent": 21, "Available_Vent": 12, "Vent_in_Use": 9, "CovidConfirmedPatient": 122, "CovidPatient_in_ICU": 7, "CovidPatientVent": 5 }, "geometry": { "type": "Point", "coordinates": [ -87.935232, 41.861661 ] } },
{ "type": "Feature", "properties": { "FID": 133, "Hospital": "Riveredge Hospital", "StreetAddress": "8311 West Roosevelt Road", "City": "Forest Park", "ZIP_Code": 60130, "X": -87.827803, "Y": 41.864595, "Total_Bed": 210, "AvailableBed": 95, "Bed_in_Use": 115, "Adult_ICU_Bed": 53, "Total_Vent": 17, "Available_Vent": 10, "Vent_in_Use": 7, "CovidConfirmedPatient": 99, "CovidPatient_in_ICU": 6, "CovidPatientVent": 4 }, "geometry": { "type": "Point", "coordinates": [ -87.827803, 41.864595 ] } },
{ "type": "Feature", "properties": { "FID": 175, "Hospital": "Northwestern Delnor Hospital", "StreetAddress": "300 Randall Road", "City": "Geneva", "ZIP_Code": 60134, "X": -88.340397, "Y": 41.88664, "Total_Bed": 159, "AvailableBed": 72, "Bed_in_Use": 87, "Adult_ICU_Bed": 40, "Total_Vent": 13, "Available_Vent": 8, "Vent_in_Use": 5, "CovidConfirmedPatient": 75, "CovidPatient_in_ICU": 4, "CovidPatientVent": 3 }, "geometry": { "type": "Point", "coordinates": [ -88.340397, 41.88664 ] } },
{ "type": "Feature", "properties": { "FID": 98, "Hospital": "AMITA Health Adventist Medical Center GlenOaks", "StreetAddress": "701 Winthrop Avenue", "City": "Glendale Heights", "ZIP_Code": 60139, "X": -88.059074, "Y": 41.914865, "Total_Bed": 143, "AvailableBed": 64, "Bed_in_Use": 79, "Adult_ICU_Bed": 36, "Total_Vent": 12, "Available_Vent": 7, "Vent_in_Use": 5, "CovidConfirmedPatient": 67, "CovidPatient_in_ICU": 4, "CovidPatientVent": 3 }, "geometry": { "type": "Point", "coordinates": [ -88.059074, 41.914865 ] } },
{ "type": "Feature", "properties": { "FID": 100, "Hospital": "Northwestern Medicine Huntley Hospital", "StreetAddress": "10400 Haligus Road", "City": "Huntley", "ZIP_Code": 60142, "X": -88.403057, "Y": 42.177314, "Total_Bed": 128, "AvailableBed": 58, "Bed_in_Use": 70, "Adult_ICU_Bed": 32, "Total_Vent": 10, "Available_Vent": 6, "Vent_in_Use": 4, "CovidConfirmedPatient": 60, "CovidPatient_in_ICU": 3, "CovidPatientVent": 2 }, "geometry": { "type": "Point", "coordinates": [ -88.403057, 42.177314 ] } },
{ "type": "Feature", "properties": { "FID": 182, "Hospital": "Foster G. McGaw Hospital - Loyola Univ. Medical Center", "StreetAddress": "2160 South First Avenue", "City": "Maywood", "ZIP_Code": 60153, "X": -87.833383, "Y": 41.861639, "Total_Bed": 547, "AvailableBed": 246, "Bed_in_Use": 301, "Adult_ICU_Bed": 137, "Total_Vent": 45, "Available_Vent": 26, "Vent_in_Use": 18, "CovidConfirmedPatient": 257, "CovidPatient_in_ICU": 14, "CovidPatientVent": 10 }, "geometry": { "type": "Point", "coordinates": [ -87.833383, 41.861639 ] } },
{ "type": "Feature", "properties": { "FID": 173, "Hospital": "Westlake Hospital", "StreetAddress": "1225 W. Lake Street", "City": "Melrose Park", "ZIP_Code": 60160, "X": -87.848329, "Y": 41.891656, "Total_Bed": 230, "AvailableBed": 104, "Bed_in_Use": 126, "Adult_ICU_Bed": 58, "Total_Vent": 19, "Available_Vent": 11, "Vent_in_Use": 8, "CovidConfirmedPatient": 108, "CovidPatient_in_ICU": 6, "CovidPatientVent": 4 }, "geometry": { "type": "Point", "coordinates": [ -87.848329, 41.891656 ] } },
{ "type": "Feature", "properties": { "FID": 181, "Hospital": "Gottlieb Memorial Hospital", "StreetAddress": "701 West North Avenue", "City": "Melrose Park", "ZIP_Code": 60160, "X": -87.84253, "Y": 41.908287, "Total_Bed": 247, "AvailableBed": 111, "Bed_in_Use": 136, "Adult_ICU_Bed": 62, "Total_Vent": 20, "Available_Vent": 12, "Vent_in_Use": 8, "CovidConfirmedPatient": 116, "CovidPatient_in_ICU": 6, "CovidPatientVent": 5 }, "geometry": { "type": "Point", "coordinates": [ -87.84253, 41.908287 ] } },
{ "type": "Feature", "properties": { "FID": 127, "Hospital": "Kindred Hospital Chicago Northlake", "StreetAddress": "365 E North Ave", "City": "Northlake", "ZIP_Code": 60164, "X": -87.890747, "Y": 41.907136, "Total_Bed": 94, "AvailableBed": 42, "Bed_in_Use": 52, "Adult_ICU_Bed": 24, "Total_Vent": 8, "Available_Vent": 5, "Vent_in_Use": 3, "CovidConfirmedPatient": 44, "CovidPatient_in_ICU": 2, "CovidPatientVent": 2 }, "geometry": { "type": "Point", "coordinates": [ -87.890747, 41.907136 ] } },
{ "type": "Feature", "properties": { "FID": 129, "Hospital": "Alexian Brothers Behavioral Health Hospital", "StreetAddress": "1650 Moon Lake Boulevard", "City": "Hoffman Estates", "ZIP_Code": 60169, "X": -88.136137, "Y": 42.054347, "Total_Bed": 141, "AvailableBed": 63, "Bed_in_Use": 78, "Adult_ICU_Bed": 35, "Total_Vent": 11, "Available_Vent": 7, "Vent_in_Use": 5, "CovidConfirmedPatient": 66, "CovidPatient_in_ICU": 4, "CovidPatientVent": 3 }, "geometry": { "type": "Point", "coordinates": [ -88.136137, 42.054347 ] } },
{ "type": "Feature", "properties": { "FID": 126, "Hospital": "Kindred Hospital Sycamore", "StreetAddress": "225 Edward St", "City": "Sycamore", "ZIP_Code": 60178, "X": -88.688655, "Y": 41.982628, "Total_Bed": 69, "AvailableBed": 31, "Bed_in_Use": 38, "Adult_ICU_Bed": 17, "Total_Vent": 6, "Available_Vent": 3, "Vent_in_Use": 2, "CovidConfirmedPatient": 32, "CovidPatient_in_ICU": 2, "CovidPatientVent": 1 }, "geometry": { "type": "Point", "coordinates": [ -88.688655, 41.982628 ] } },
{ "type": "Feature", "properties": { "FID": 13, "Hospital": "Evanston Hospital", "StreetAddress": "2650 Ridge Avenue", "City": "Evanston", "ZIP_Code": 60201, "X": -87.683288, "Y": 42.065393, "Total_Bed": 354, "AvailableBed": 159, "Bed_in_Use": 195, "Adult_ICU_Bed": 89, "Total_Vent": 29, "Available_Vent": 17, "Vent_in_Use": 12, "CovidConfirmedPatient": 166, "CovidPatient_in_ICU": 9, "CovidPatientVent": 6 }, "geometry": { "type": "Point", "coordinates": [ -87.683288, 42.065393 ] } },
{ "type": "Feature", "properties": { "FID": 200, "Hospital": "Presence Saint Francis Hospital", "StreetAddress": "355 Ridge Avenue", "City": "Evanston", "ZIP_Code": 60202, "X": -87.685153, "Y": 42.024215, "Total_Bed": 215, "AvailableBed": 97, "Bed_in_Use": 118, "Adult_ICU_Bed": 54, "Total_Vent": 17, "Available_Vent": 10, "Vent_in_Use": 7, "CovidConfirmedPatient": 101, "CovidPatient_in_ICU": 6, "CovidPatientVent": 4 }, "geometry": { "type": "Point", "coordinates": [ -87.685153, 42.024215 ] } },
{ "type": "Feature", "properties": { "FID": 172, "Hospital": "West Suburban Medical Center", "StreetAddress": "3 Erie Court", "City": "Oak Park", "ZIP_Code": 60302, "X": -87.776283, "Y": 41.891523, "Total_Bed": 234, "AvailableBed": 105, "Bed_in_Use": 129, "Adult_ICU_Bed": 59, "Total_Vent": 19, "Available_Vent": 11, "Vent_in_Use": 8, "CovidConfirmedPatient": 110, "CovidPatient_in_ICU": 6, "CovidPatientVent": 4 }, "geometry": { "type": "Point", "coordinates": [ -87.776283, 41.891523 ] } },
{ "type": "Feature", "properties": { "FID": 48, "Hospital": "Rush Oak Park Hospital, Inc.", "StreetAddress": "520 S. Maple Avenue", "City": "Oak Park", "ZIP_Code": 60304, "X": -87.803792, "Y": 41.879298, "Total_Bed": 237, "AvailableBed": 107, "Bed_in_Use": 130, "Adult_ICU_Bed": 59, "Total_Vent": 19, "Available_Vent": 11, "Vent_in_Use": 8, "CovidConfirmedPatient": 111, "CovidPatient_in_ICU": 6, "CovidPatientVent": 4 }, "geometry": { "type": "Point", "coordinates": [ -87.803792, 41.879298 ] } },
{ "type": "Feature", "properties": { "FID": 211, "Hospital": "MacNeal Hospital", "StreetAddress": "3249 South Oak Park Avenue", "City": "Berwyn", "ZIP_Code": 60402, "X": -87.792752, "Y": 41.832261, "Total_Bed": 374, "AvailableBed": 168, "Bed_in_Use": 206, "Adult_ICU_Bed": 94, "Total_Vent": 30, "Available_Vent": 18, "Vent_in_Use": 12, "CovidConfirmedPatient": 176, "CovidPatient_in_ICU": 10, "CovidPatientVent": 7 }, "geometry": { "type": "Point", "coordinates": [ -87.792752, 41.832261 ] } },
{ "type": "Feature", "properties": { "FID": 185, "Hospital": "MetroSouth Medical Center", "StreetAddress": "12935 South Gregory Street", "City": "Blue Island", "ZIP_Code": 60406, "X": -87.678242, "Y": 41.658165, "Total_Bed": 314, "AvailableBed": 141, "Bed_in_Use": 173, "Adult_ICU_Bed": 79, "Total_Vent": 26, "Available_Vent": 15, "Vent_in_Use": 10, "CovidConfirmedPatient": 148, "CovidPatient_in_ICU": 8, "CovidPatientVent": 6 }, "geometry": { "type": "Point", "coordinates": [ -87.678242, 41.658165 ] } },
{ "type": "Feature", "properties": { "FID": 71, "Hospital": "Franciscan Health - Chicago Heights", "StreetAddress": "1423 Chicago Road", "City": "Chicago Heights", "ZIP_Code": 60411, "X": -87.640973, "Y": 41.505766, "Total_Bed": 0, "AvailableBed": 0, "Bed_in_Use": 0, "Adult_ICU_Bed": 0, "Total_Vent": 0, "Available_Vent": 0, "Vent_in_Use": 0, "CovidConfirmedPatient": 0, "CovidPatient_in_ICU": 0, "CovidPatientVent": 0 }, "geometry": { "type": "Point", "coordinates": [ -87.640973, 41.505766 ] } },
{ "type": "Feature", "properties": { "FID": 27, "Hospital": "Ingalls Memorial Hospital", "StreetAddress": "ONE INGALLS DRIVE", "City": "Harvey", "ZIP_Code": 60426, "X": -87.65953, "Y": 41.606516, "Total_Bed": 485, "AvailableBed": 218, "Bed_in_Use": 267, "Adult_ICU_Bed": 121, "Total_Vent": 39, "Available_Vent": 23, "Vent_in_Use": 16, "CovidConfirmedPatient": 228, "CovidPatient_in_ICU": 13, "CovidPatientVent": 9 }, "geometry": { "type": "Point", "coordinates": [ -87.65953, 41.606516 ] } },
{ "type": "Feature", "properties": { "FID": 115, "Hospital": "Advocate South Suburban Hospital", "StreetAddress": "17800 South Kedzie Ave", "City": "Hazel Crest", "ZIP_Code": 60429, "X": -87.694347, "Y": 41.56561, "Total_Bed": 233, "AvailableBed": 105, "Bed_in_Use": 128, "Adult_ICU_Bed": 58, "Total_Vent": 19, "Available_Vent": 11, "Vent_in_Use": 8, "CovidConfirmedPatient": 109, "CovidPatient_in_ICU": 6, "CovidPatientVent": 4 }, "geometry": { "type": "Point", "coordinates": [ -87.694347, 41.56561 ] } },
{ "type": "Feature", "properties": { "FID": 120, "Hospital": "Presence Saint Joseph Medical Center", "StreetAddress": "333 North Madison Street", "City": "Joliet", "ZIP_Code": 60435, "X": -88.134663, "Y": 41.5281, "Total_Bed": 498, "AvailableBed": 224, "Bed_in_Use": 274, "Adult_ICU_Bed": 125, "Total_Vent": 41, "Available_Vent": 24, "Vent_in_Use": 17, "CovidConfirmedPatient": 234, "CovidPatient_in_ICU": 13, "CovidPatientVent": 9 }, "geometry": { "type": "Point", "coordinates": [ -88.134663, 41.5281 ] } },
{ "type": "Feature", "properties": { "FID": 159, "Hospital": "AMITA Health Adventist Medical Center Bolingbrook", "StreetAddress": "500 Remington Blvd", "City": "Bolingbrook", "ZIP_Code": 60440, "X": -88.083214, "Y": 41.679962, "Total_Bed": 138, "AvailableBed": 62, "Bed_in_Use": 76, "Adult_ICU_Bed": 35, "Total_Vent": 11, "Available_Vent": 7, "Vent_in_Use": 5, "CovidConfirmedPatient": 65, "CovidPatient_in_ICU": 4, "CovidPatientVent": 3 }, "geometry": { "type": "Point", "coordinates": [ -88.083214, 41.679962 ] } },
{ "type": "Feature", "properties": { "FID": 43, "Hospital": "Morris Hospital & Healthcare Centers", "StreetAddress": "150 W. High St.", "City": "Morris", "ZIP_Code": 60450, "X": -88.426122, "Y": 41.368965, "Total_Bed": 89, "AvailableBed": 40, "Bed_in_Use": 49, "Adult_ICU_Bed": 22, "Total_Vent": 7, "Available_Vent": 4, "Vent_in_Use": 3, "CovidConfirmedPatient": 42, "CovidPatient_in_ICU": 2, "CovidPatientVent": 2 }, "geometry": { "type": "Point", "coordinates": [ -88.426122, 41.368965 ] } },
{ "type": "Feature", "properties": { "FID": 184, "Hospital": "Silver Cross Hospital", "StreetAddress": "1900 Silver Cross Boulevard", "City": "New Lenox", "ZIP_Code": 60451, "X": -87.986126, "Y": 41.544504, "Total_Bed": 302, "AvailableBed": 136, "Bed_in_Use": 166, "Adult_ICU_Bed": 76, "Total_Vent": 25, "Available_Vent": 15, "Vent_in_Use": 10, "CovidConfirmedPatient": 142, "CovidPatient_in_ICU": 8, "CovidPatientVent": 6 }, "geometry": { "type": "Point", "coordinates": [ -87.986126, 41.544504 ] } },
{ "type": "Feature", "properties": { "FID": 4, "Hospital": "Advocate Christ Medical Center", "StreetAddress": "4440 W. 95th Street", "City": "Oak Lawn", "ZIP_Code": 60453, "X": -87.732483, "Y": 41.720281, "Total_Bed": 785, "AvailableBed": 353, "Bed_in_Use": 432, "Adult_ICU_Bed": 196, "Total_Vent": 64, "Available_Vent": 38, "Vent_in_Use": 26, "CovidConfirmedPatient": 369, "CovidPatient_in_ICU": 21, "CovidPatientVent": 14 }, "geometry": { "type": "Point", "coordinates": [ -87.732483, 41.720281 ] } },
{ "type": "Feature", "properties": { "FID": 87, "Hospital": "Palos Community Hospital", "StreetAddress": "12251 South 80th Avenue", "City": "Palos Heights", "ZIP_Code": 60463, "X": -87.815882, "Y": 41.66835, "Total_Bed": 410, "AvailableBed": 185, "Bed_in_Use": 225, "Adult_ICU_Bed": 103, "Total_Vent": 33, "Available_Vent": 20, "Vent_in_Use": 14, "CovidConfirmedPatient": 193, "CovidPatient_in_ICU": 11, "CovidPatientVent": 7 }, "geometry": { "type": "Point", "coordinates": [ -87.815882, 41.66835 ] } },
{ "type": "Feature", "properties": { "FID": 112, "Hospital": "Rush Copley Medical Center", "StreetAddress": "2000 Ogden Avenue", "City": "Aurora", "ZIP_Code": 60504, "X": -88.268535, "Y": 41.7277, "Total_Bed": 210, "AvailableBed": 95, "Bed_in_Use": 115, "Adult_ICU_Bed": 53, "Total_Vent": 17, "Available_Vent": 10, "Vent_in_Use": 7, "CovidConfirmedPatient": 99, "CovidPatient_in_ICU": 6, "CovidPatientVent": 4 }, "geometry": { "type": "Point", "coordinates": [ -88.268535, 41.7277 ] } },
{ "type": "Feature", "properties": { "FID": 123, "Hospital": "Presence Mercy Medical Center", "StreetAddress": "1325 North Highland Avenue", "City": "Aurora", "ZIP_Code": 60506, "X": -88.328869, "Y": 41.786649, "Total_Bed": 292, "AvailableBed": 131, "Bed_in_Use": 161, "Adult_ICU_Bed": 73, "Total_Vent": 24, "Available_Vent": 14, "Vent_in_Use": 10, "CovidConfirmedPatient": 137, "CovidPatient_in_ICU": 8, "CovidPatientVent": 5 }, "geometry": { "type": "Point", "coordinates": [ -88.328869, 41.786649 ] } },
{ "type": "Feature", "properties": { "FID": 91, "Hospital": "Advocate Good Samaritan Hospital", "StreetAddress": "3815 Highland Avenue", "City": "Downers Grove", "ZIP_Code": 60515, "X": -88.010222, "Y": 41.818886, "Total_Bed": 284, "AvailableBed": 128, "Bed_in_Use": 156, "Adult_ICU_Bed": 71, "Total_Vent": 23, "Available_Vent": 14, "Vent_in_Use": 9, "CovidConfirmedPatient": 133, "CovidPatient_in_ICU": 7, "CovidPatientVent": 5 }, "geometry": { "type": "Point", "coordinates": [ -88.010222, 41.818886 ] } },
{ "type": "Feature", "properties": { "FID": 24, "Hospital": "AMITA Health Adventist Medical Center Hinsdale", "StreetAddress": "120 North Oak Street", "City": "Hinsdale", "ZIP_Code": 60521, "X": -87.920116, "Y": 41.805613, "Total_Bed": 261, "AvailableBed": 117, "Bed_in_Use": 144, "Adult_ICU_Bed": 65, "Total_Vent": 21, "Available_Vent": 13, "Vent_in_Use": 9, "CovidConfirmedPatient": 123, "CovidPatient_in_ICU": 7, "CovidPatientVent": 5 }, "geometry": { "type": "Point", "coordinates": [ -87.920116, 41.805613 ] } },
{ "type": "Feature", "properties": { "FID": 119, "Hospital": "RML Specialty Hospital Hinsdale", "StreetAddress": "5601 S. County Line Rd.", "City": "Hinsdale", "ZIP_Code": 60521, "X": -87.916887, "Y": 41.78744, "Total_Bed": 115, "AvailableBed": 52, "Bed_in_Use": 63, "Adult_ICU_Bed": 29, "Total_Vent": 9, "Available_Vent": 6, "Vent_in_Use": 4, "CovidConfirmedPatient": 54, "CovidPatient_in_ICU": 3, "CovidPatientVent": 2 }, "geometry": { "type": "Point", "coordinates": [ -87.916887, 41.78744 ] } },
{ "type": "Feature", "properties": { "FID": 102, "Hospital": "Edward Hospital", "StreetAddress": "801 South Washington Street", "City": "Naperville", "ZIP_Code": 60540, "X": -88.149158, "Y": 41.761346, "Total_Bed": 341, "AvailableBed": 153, "Bed_in_Use": 188, "Adult_ICU_Bed": 85, "Total_Vent": 28, "Available_Vent": 16, "Vent_in_Use": 11, "CovidConfirmedPatient": 160, "CovidPatient_in_ICU": 9, "CovidPatientVent": 6 }, "geometry": { "type": "Point", "coordinates": [ -88.149158, 41.761346 ] } },
{ "type": "Feature", "properties": { "FID": 130, "Hospital": "Linden Oaks Hospital", "StreetAddress": "852 South West Street", "City": "Naperville", "ZIP_Code": 60540, "X": -88.158038, "Y": 41.75806, "Total_Bed": 108, "AvailableBed": 49, "Bed_in_Use": 59, "Adult_ICU_Bed": 27, "Total_Vent": 9, "Available_Vent": 5, "Vent_in_Use": 4, "CovidConfirmedPatient": 51, "CovidPatient_in_ICU": 3, "CovidPatientVent": 2 }, "geometry": { "type": "Point", "coordinates": [ -88.158038, 41.75806 ] } },
{ "type": "Feature", "properties": { "FID": 114, "Hospital": "Valley West Community Hospital", "StreetAddress": "1302 North Main Street", "City": "Sandwich", "ZIP_Code": 60548, "X": -88.621881, "Y": 41.657769, "Total_Bed": 25, "AvailableBed": 11, "Bed_in_Use": 14, "Adult_ICU_Bed": 6, "Total_Vent": 2, "Available_Vent": 1, "Vent_in_Use": 1, "CovidConfirmedPatient": 12, "CovidPatient_in_ICU": 1, "CovidPatientVent": 0 }, "geometry": { "type": "Point", "coordinates": [ -88.621881, 41.657769 ] } },
{ "type": "Feature", "properties": { "FID": 45, "Hospital": "Mount Sinai Hospital Medical Center", "StreetAddress": "2750 W 15th Street", "City": "Chicago", "ZIP_Code": 60608, "X": -87.692865, "Y": 41.86112, "Total_Bed": 288, "AvailableBed": 130, "Bed_in_Use": 158, "Adult_ICU_Bed": 72, "Total_Vent": 23, "Available_Vent": 14, "Vent_in_Use": 10, "CovidConfirmedPatient": 135, "CovidPatient_in_ICU": 8, "CovidPatientVent": 5 }, "geometry": { "type": "Point", "coordinates": [ -87.692865, 41.86112 ] } },
{ "type": "Feature", "properties": { "FID": 62, "Hospital": "Schwab Rehabilitation Hospital", "StreetAddress": "1401 South California Avenue", "City": "Chicago", "ZIP_Code": 60608, "X": -87.695761, "Y": 41.862511, "Total_Bed": 102, "AvailableBed": 46, "Bed_in_Use": 56, "Adult_ICU_Bed": 26, "Total_Vent": 8, "Available_Vent": 5, "Vent_in_Use": 3, "CovidConfirmedPatient": 48, "CovidPatient_in_ICU": 3, "CovidPatientVent": 2 }, "geometry": { "type": "Point", "coordinates": [ -87.695761, 41.862511 ] } },
{ "type": "Feature", "properties": { "FID": 90, "Hospital": "Northwestern Memorial Hospital", "StreetAddress": "251 E Huron St", "City": "Chicago", "ZIP_Code": 60611, "X": -87.620371, "Y": 41.894973, "Total_Bed": 894, "AvailableBed": 402, "Bed_in_Use": 492, "Adult_ICU_Bed": 224, "Total_Vent": 73, "Available_Vent": 43, "Vent_in_Use": 30, "CovidConfirmedPatient": 420, "CovidPatient_in_ICU": 24, "CovidPatientVent": 16 }, "geometry": { "type": "Point", "coordinates": [ -87.620371, 41.894973 ] } },
{ "type": "Feature", "properties": { "FID": 186, "Hospital": "Ann & Robert H.Lurie Chidren's Hospital of Chicago", "StreetAddress": "225 E. Chicago Avenue", "City": "Chicago", "ZIP_Code": 60611, "X": -87.621562, "Y": 41.896763, "Total_Bed": 336, "AvailableBed": 151, "Bed_in_Use": 185, "Adult_ICU_Bed": 84, "Total_Vent": 27, "Available_Vent": 16, "Vent_in_Use": 11, "CovidConfirmedPatient": 158, "CovidPatient_in_ICU": 9, "CovidPatientVent": 6 }, "geometry": { "type": "Point", "coordinates": [ -87.621562, 41.896763 ] } },
{ "type": "Feature", "properties": { "FID": 206, "Hospital": "Shirley Ryan AbilityLab", "StreetAddress": "355 East Erie Street", "City": "Chicago", "ZIP_Code": 60611, "X": -87.618897, "Y": 41.894197, "Total_Bed": 242, "AvailableBed": 109, "Bed_in_Use": 133, "Adult_ICU_Bed": 61, "Total_Vent": 20, "Available_Vent": 12, "Vent_in_Use": 8, "CovidConfirmedPatient": 114, "CovidPatient_in_ICU": 6, "CovidPatientVent": 4 }, "geometry": { "type": "Point", "coordinates": [ -87.618897, 41.894197 ] } },
{ "type": "Feature", "properties": { "FID": 54, "Hospital": "Rush University Medical Center", "StreetAddress": "1653 West Congress Parkway", "City": "Chicago", "ZIP_Code": 60612, "X": -87.668008, "Y": 41.875118, "Total_Bed": 729, "AvailableBed": 328, "Bed_in_Use": 401, "Adult_ICU_Bed": 182, "Total_Vent": 59, "Available_Vent": 35, "Vent_in_Use": 24, "CovidConfirmedPatient": 343, "CovidPatient_in_ICU": 19, "CovidPatientVent": 13 }, "geometry": { "type": "Point", "coordinates": [ -87.668008, 41.875118 ] } },
{ "type": "Feature", "properties": { "FID": 144, "Hospital": "John H Stroger Hospital", "StreetAddress": "1901 W. Harrison St", "City": "Chicago", "ZIP_Code": 60612, "X": -87.674139, "Y": 41.874067, "Total_Bed": 450, "AvailableBed": 203, "Bed_in_Use": 247, "Adult_ICU_Bed": 113, "Total_Vent": 37, "Available_Vent": 22, "Vent_in_Use": 15, "CovidConfirmedPatient": 211, "CovidPatient_in_ICU": 12, "CovidPatientVent": 8 }, "geometry": { "type": "Point", "coordinates": [ -87.674139, 41.874067 ] } },
{ "type": "Feature", "properties": { "FID": 145, "Hospital": "University of Illinois Hospital and Health Science", "StreetAddress": "1740 West Taylor Steet", "City": "Chicago", "ZIP_Code": 60612, "X": -87.670444, "Y": 41.869209, "Total_Bed": 495, "AvailableBed": 223, "Bed_in_Use": 272, "Adult_ICU_Bed": 124, "Total_Vent": 40, "Available_Vent": 24, "Vent_in_Use": 17, "CovidConfirmedPatient": 233, "CovidPatient_in_ICU": 13, "CovidPatientVent": 9 }, "geometry": { "type": "Point", "coordinates": [ -87.670444, 41.869209 ] } },
{ "type": "Feature", "properties": { "FID": 150, "Hospital": "Thorek Memorial Hospital", "StreetAddress": "850 W. Irving Park Road", "City": "Chicago", "ZIP_Code": 60613, "X": -87.652163, "Y": 41.954536, "Total_Bed": 156, "AvailableBed": 70, "Bed_in_Use": 86, "Adult_ICU_Bed": 39, "Total_Vent": 13, "Available_Vent": 7, "Vent_in_Use": 5, "CovidConfirmedPatient": 73, "CovidPatient_in_ICU": 4, "CovidPatientVent": 3 }, "geometry": { "type": "Point", "coordinates": [ -87.652163, 41.954536 ] } },
{ "type": "Feature", "properties": { "FID": 108, "Hospital": "Provident Hospital of Cook County", "StreetAddress": "500 East 51st Street", "City": "Chicago", "ZIP_Code": 60615, "X": -87.613991, "Y": 41.802167, "Total_Bed": 85, "AvailableBed": 38, "Bed_in_Use": 47, "Adult_ICU_Bed": 21, "Total_Vent": 7, "Available_Vent": 4, "Vent_in_Use": 3, "CovidConfirmedPatient": 40, "CovidPatient_in_ICU": 2, "CovidPatientVent": 2 }, "geometry": { "type": "Point", "coordinates": [ -87.613991, 41.802167 ] } },
{ "type": "Feature", "properties": { "FID": 41, "Hospital": "Mercy Hospital & Medical Center", "StreetAddress": "2525 South Michigan Avenue", "City": "Chicago", "ZIP_Code": 60616, "X": -87.623542, "Y": 41.847044, "Total_Bed": 402, "AvailableBed": 181, "Bed_in_Use": 221, "Adult_ICU_Bed": 101, "Total_Vent": 33, "Available_Vent": 19, "Vent_in_Use": 13, "CovidConfirmedPatient": 189, "CovidPatient_in_ICU": 11, "CovidPatientVent": 7 }, "geometry": { "type": "Point", "coordinates": [ -87.623542, 41.847044 ] } },
{ "type": "Feature", "properties": { "FID": 94, "Hospital": "South Shore Hospital Corporation", "StreetAddress": "8012 South Crandon Ave.", "City": "Chicago", "ZIP_Code": 60617, "X": -87.568691, "Y": 41.7496, "Total_Bed": 137, "AvailableBed": 62, "Bed_in_Use": 75, "Adult_ICU_Bed": 34, "Total_Vent": 11, "Available_Vent": 7, "Vent_in_Use": 5, "CovidConfirmedPatient": 64, "CovidPatient_in_ICU": 4, "CovidPatientVent": 3 }, "geometry": { "type": "Point", "coordinates": [ -87.568691, 41.7496 ] } },
{ "type": "Feature", "properties": { "FID": 105, "Hospital": "Advocate Trinity Hospital", "StreetAddress": "2320 East 93rd Street", "City": "Chicago", "ZIP_Code": 60617, "X": -87.56738, "Y": 41.726249, "Total_Bed": 205, "AvailableBed": 92, "Bed_in_Use": 113, "Adult_ICU_Bed": 51, "Total_Vent": 17, "Available_Vent": 10, "Vent_in_Use": 7, "CovidConfirmedPatient": 96, "CovidPatient_in_ICU": 5, "CovidPatientVent": 4 }, "geometry": { "type": "Point", "coordinates": [ -87.56738, 41.726249 ] } },
{ "type": "Feature", "properties": { "FID": 125, "Hospital": "Kindred Hospital Chicago North", "StreetAddress": "2544 W. Montrose Ave.", "City": "Chicago", "ZIP_Code": 60618, "X": -87.692685, "Y": 41.961317, "Total_Bed": 164, "AvailableBed": 74, "Bed_in_Use": 90, "Adult_ICU_Bed": 41, "Total_Vent": 13, "Available_Vent": 8, "Vent_in_Use": 5, "CovidConfirmedPatient": 77, "CovidPatient_in_ICU": 4, "CovidPatientVent": 3 }, "geometry": { "type": "Point", "coordinates": [ -87.692685, 41.961317 ] } },
{ "type": "Feature", "properties": { "FID": 68, "Hospital": "St Bernard Hospital", "StreetAddress": "326 W. 64th Street", "City": "Chicago", "ZIP_Code": 60621, "X": -87.63325, "Y": 41.778137, "Total_Bed": 210, "AvailableBed": 95, "Bed_in_Use": 115, "Adult_ICU_Bed": 53, "Total_Vent": 17, "Available_Vent": 10, "Vent_in_Use": 7, "CovidConfirmedPatient": 99, "CovidPatient_in_ICU": 6, "CovidPatientVent": 4 }, "geometry": { "type": "Point", "coordinates": [ -87.63325, 41.778137 ] } },
{ "type": "Feature", "properties": { "FID": 47, "Hospital": "Norwegian American Hospital", "StreetAddress": "1044 North Francisco Avenue", "City": "Chicago", "ZIP_Code": 60622, "X": -87.699301, "Y": 41.899822, "Total_Bed": 215, "AvailableBed": 97, "Bed_in_Use": 118, "Adult_ICU_Bed": 54, "Total_Vent": 17, "Available_Vent": 10, "Vent_in_Use": 7, "CovidConfirmedPatient": 101, "CovidPatient_in_ICU": 6, "CovidPatientVent": 4 }, "geometry": { "type": "Point", "coordinates": [ -87.699301, 41.899822 ] } },
{ "type": "Feature", "properties": { "FID": 201, "Hospital": "Presence Saint Mary of Nazareth", "StreetAddress": "2233 West Division Street", "City": "Chicago", "ZIP_Code": 60622, "X": -87.683026, "Y": 41.903038, "Total_Bed": 387, "AvailableBed": 174, "Bed_in_Use": 213, "Adult_ICU_Bed": 97, "Total_Vent": 31, "Available_Vent": 19, "Vent_in_Use": 13, "CovidConfirmedPatient": 182, "CovidPatient_in_ICU": 10, "CovidPatientVent": 7 }, "geometry": { "type": "Point", "coordinates": [ -87.683026, 41.903038 ] } },
{ "type": "Feature", "properties": { "FID": 202, "Hospital": "Presence Saint Elizabeth Hospital", "StreetAddress": "1431 North Claremont", "City": "Chicago", "ZIP_Code": 60622, "X": -87.685883, "Y": 41.907521, "Total_Bed": 108, "AvailableBed": 49, "Bed_in_Use": 59, "Adult_ICU_Bed": 27, "Total_Vent": 9, "Available_Vent": 5, "Vent_in_Use": 4, "CovidConfirmedPatient": 51, "CovidPatient_in_ICU": 3, "CovidPatientVent": 2 }, "geometry": { "type": "Point", "coordinates": [ -87.685883, 41.907521 ] } },
{ "type": "Feature", "properties": { "FID": 166, "Hospital": "Saint Anthony Hospital", "StreetAddress": "2875 W 19th Street", "City": "Chicago", "ZIP_Code": 60623, "X": -87.698237, "Y": 41.855486, "Total_Bed": 151, "AvailableBed": 68, "Bed_in_Use": 83, "Adult_ICU_Bed": 38, "Total_Vent": 12, "Available_Vent": 7, "Vent_in_Use": 5, "CovidConfirmedPatient": 71, "CovidPatient_in_ICU": 4, "CovidPatientVent": 3 }, "geometry": { "type": "Point", "coordinates": [ -87.698237, 41.855486 ] } },
{ "type": "Feature", "properties": { "FID": 170, "Hospital": "RML Specialty Hospital Chicago", "StreetAddress": "3435 W. Van Buren St.", "City": "Chicago", "ZIP_Code": 60624, "X": -87.712049, "Y": 41.875405, "Total_Bed": 86, "AvailableBed": 39, "Bed_in_Use": 47, "Adult_ICU_Bed": 22, "Total_Vent": 7, "Available_Vent": 4, "Vent_in_Use": 3, "CovidConfirmedPatient": 40, "CovidPatient_in_ICU": 2, "CovidPatientVent": 2 }, "geometry": { "type": "Point", "coordinates": [ -87.712049, 41.875405 ] } },
{ "type": "Feature", "properties": { "FID": 192, "Hospital": "Garfield Park Hospital", "StreetAddress": "520 North Ridgeway", "City": "Chicago", "ZIP_Code": 60624, "X": -87.71987, "Y": 41.890602, "Total_Bed": 88, "AvailableBed": 40, "Bed_in_Use": 48, "Adult_ICU_Bed": 22, "Total_Vent": 7, "Available_Vent": 4, "Vent_in_Use": 3, "CovidConfirmedPatient": 41, "CovidPatient_in_ICU": 2, "CovidPatientVent": 2 }, "geometry": { "type": "Point", "coordinates": [ -87.71987, 41.890602 ] } },
{ "type": "Feature", "properties": { "FID": 79, "Hospital": "Swedish Covenant Hospital", "StreetAddress": "5145 N California Ave", "City": "Chicago", "ZIP_Code": 60625, "X": -87.698875, "Y": 41.974884, "Total_Bed": 312, "AvailableBed": 140, "Bed_in_Use": 172, "Adult_ICU_Bed": 78, "Total_Vent": 25, "Available_Vent": 15, "Vent_in_Use": 10, "CovidConfirmedPatient": 147, "CovidPatient_in_ICU": 8, "CovidPatientVent": 6 }, "geometry": { "type": "Point", "coordinates": [ -87.698875, 41.974884 ] } },
{ "type": "Feature", "properties": { "FID": 59, "Hospital": "Roseland Community Hospital", "StreetAddress": "45 West  111th Street", "City": "Chicago", "ZIP_Code": 60628, "X": -87.62528, "Y": 41.692525, "Total_Bed": 134, "AvailableBed": 60, "Bed_in_Use": 74, "Adult_ICU_Bed": 34, "Total_Vent": 11, "Available_Vent": 6, "Vent_in_Use": 4, "CovidConfirmedPatient": 63, "CovidPatient_in_ICU": 4, "CovidPatientVent": 2 }, "geometry": { "type": "Point", "coordinates": [ -87.62528, 41.692525 ] } },
{ "type": "Feature", "properties": { "FID": 25, "Hospital": "Holy Cross Hospital", "StreetAddress": "2701 W 68th Street", "City": "Chicago", "ZIP_Code": 60629, "X": -87.690841, "Y": 41.770001, "Total_Bed": 264, "AvailableBed": 119, "Bed_in_Use": 145, "Adult_ICU_Bed": 66, "Total_Vent": 21, "Available_Vent": 13, "Vent_in_Use": 9, "CovidConfirmedPatient": 124, "CovidPatient_in_ICU": 7, "CovidPatientVent": 5 }, "geometry": { "type": "Point", "coordinates": [ -87.690841, 41.770001 ] } },
{ "type": "Feature", "properties": { "FID": 204, "Hospital": "Resurrection Medical Center", "StreetAddress": "7435 West Talcott Avenue", "City": "Chicago", "ZIP_Code": 60631, "X": -87.813134, "Y": 41.988756, "Total_Bed": 337, "AvailableBed": 152, "Bed_in_Use": 185, "Adult_ICU_Bed": 84, "Total_Vent": 27, "Available_Vent": 16, "Vent_in_Use": 11, "CovidConfirmedPatient": 158, "CovidPatient_in_ICU": 9, "CovidPatientVent": 6 }, "geometry": { "type": "Point", "coordinates": [ -87.813134, 41.988756 ] } },
{ "type": "Feature", "properties": { "FID": 101, "Hospital": "The University of Chicago Medical Center", "StreetAddress": "5841 S. Maryland Avenue", "City": "Chicago", "ZIP_Code": 60637, "X": -87.60489, "Y": 41.78881, "Total_Bed": 811, "AvailableBed": 365, "Bed_in_Use": 446, "Adult_ICU_Bed": 203, "Total_Vent": 66, "Available_Vent": 39, "Vent_in_Use": 27, "CovidConfirmedPatient": 381, "CovidPatient_in_ICU": 21, "CovidPatientVent": 15 }, "geometry": { "type": "Point", "coordinates": [ -87.60489, 41.78881 ] } },
{ "type": "Feature", "properties": { "FID": 2, "Hospital": "Methodist Hospital of Chicago", "StreetAddress": "5025 North Paulina Street", "City": "Chicago", "ZIP_Code": 60640, "X": -87.671079, "Y": 41.9728, "Total_Bed": 145, "AvailableBed": 65, "Bed_in_Use": 80, "Adult_ICU_Bed": 36, "Total_Vent": 12, "Available_Vent": 7, "Vent_in_Use": 5, "CovidConfirmedPatient": 68, "CovidPatient_in_ICU": 4, "CovidPatientVent": 3 }, "geometry": { "type": "Point", "coordinates": [ -87.671079, 41.9728 ] } },
{ "type": "Feature", "properties": { "FID": 138, "Hospital": "Chicago Lakeshore Hospital", "StreetAddress": "4840 North Marine Drive", "City": "Chicago", "ZIP_Code": 60640, "X": -87.64992, "Y": 41.970362, "Total_Bed": 161, "AvailableBed": 72, "Bed_in_Use": 89, "Adult_ICU_Bed": 40, "Total_Vent": 13, "Available_Vent": 8, "Vent_in_Use": 5, "CovidConfirmedPatient": 76, "CovidPatient_in_ICU": 4, "CovidPatientVent": 3 }, "geometry": { "type": "Point", "coordinates": [ -87.64992, 41.970362 ] } },
{ "type": "Feature", "properties": { "FID": 142, "Hospital": "Weiss Memorial Hospital", "StreetAddress": "4646 North Marine Drive", "City": "Chicago", "ZIP_Code": 60640, "X": -87.648831, "Y": 41.966373, "Total_Bed": 237, "AvailableBed": 107, "Bed_in_Use": 130, "Adult_ICU_Bed": 59, "Total_Vent": 19, "Available_Vent": 11, "Vent_in_Use": 8, "CovidConfirmedPatient": 111, "CovidPatient_in_ICU": 6, "CovidPatientVent": 4 }, "geometry": { "type": "Point", "coordinates": [ -87.648831, 41.966373 ] } },
{ "type": "Feature", "properties": { "FID": 109, "Hospital": "Kindred Chicago Central Hospital", "StreetAddress": "4058 W Melrose St", "City": "Chicago", "ZIP_Code": 60641, "X": -87.728771, "Y": 41.940006, "Total_Bed": 95, "AvailableBed": 43, "Bed_in_Use": 52, "Adult_ICU_Bed": 24, "Total_Vent": 8, "Available_Vent": 5, "Vent_in_Use": 3, "CovidConfirmedPatient": 45, "CovidPatient_in_ICU": 2, "CovidPatientVent": 2 }, "geometry": { "type": "Point", "coordinates": [ -87.728771, 41.940006 ] } },
{ "type": "Feature", "properties": { "FID": 33, "Hospital": "Loretto Hospital", "StreetAddress": "645 South Central Avenue", "City": "Chicago", "ZIP_Code": 60644, "X": -87.764555, "Y": 41.872401, "Total_Bed": 177, "AvailableBed": 80, "Bed_in_Use": 97, "Adult_ICU_Bed": 44, "Total_Vent": 14, "Available_Vent": 8, "Vent_in_Use": 6, "CovidConfirmedPatient": 83, "CovidPatient_in_ICU": 5, "CovidPatientVent": 3 }, "geometry": { "type": "Point", "coordinates": [ -87.764555, 41.872401 ] } },
{ "type": "Feature", "properties": { "FID": 156, "Hospital": "Hartgrove Hospital", "StreetAddress": "5730 West Roosevelt Road", "City": "Chicago", "ZIP_Code": 60644, "X": -87.768162, "Y": 41.865565, "Total_Bed": 160, "AvailableBed": 72, "Bed_in_Use": 88, "Adult_ICU_Bed": 40, "Total_Vent": 13, "Available_Vent": 8, "Vent_in_Use": 5, "CovidConfirmedPatient": 75, "CovidPatient_in_ICU": 4, "CovidPatientVent": 3 }, "geometry": { "type": "Point", "coordinates": [ -87.768162, 41.865565 ] } },
{ "type": "Feature", "properties": { "FID": 29, "Hospital": "Jackson Park Hospital & Medical Center", "StreetAddress": "7531 S. Stony Island Ave.", "City": "Chicago", "ZIP_Code": 60649, "X": -87.585693, "Y": 41.75776, "Total_Bed": 256, "AvailableBed": 115, "Bed_in_Use": 141, "Adult_ICU_Bed": 64, "Total_Vent": 21, "Available_Vent": 12, "Vent_in_Use": 9, "CovidConfirmedPatient": 120, "CovidPatient_in_ICU": 7, "CovidPatientVent": 5 }, "geometry": { "type": "Point", "coordinates": [ -87.585693, 41.75776 ] } },
{ "type": "Feature", "properties": { "FID": 136, "Hospital": "Advocate Illinois Masonic Medical Center", "StreetAddress": "836 West Wellington Avenue", "City": "Chicago", "ZIP_Code": 60657, "X": -87.650443, "Y": 41.936355, "Total_Bed": 397, "AvailableBed": 179, "Bed_in_Use": 218, "Adult_ICU_Bed": 99, "Total_Vent": 32, "Available_Vent": 19, "Vent_in_Use": 13, "CovidConfirmedPatient": 187, "CovidPatient_in_ICU": 10, "CovidPatientVent": 7 }, "geometry": { "type": "Point", "coordinates": [ -87.650443, 41.936355 ] } },
{ "type": "Feature", "properties": { "FID": 199, "Hospital": "Presence Saint Joseph Hospital - Chicago", "StreetAddress": "2900 North Lake Shore Drive", "City": "Chicago", "ZIP_Code": 60657, "X": -87.636763, "Y": 41.934868, "Total_Bed": 361, "AvailableBed": 162, "Bed_in_Use": 199, "Adult_ICU_Bed": 90, "Total_Vent": 29, "Available_Vent": 17, "Vent_in_Use": 12, "CovidConfirmedPatient": 170, "CovidPatient_in_ICU": 9, "CovidPatientVent": 7 }, "geometry": { "type": "Point", "coordinates": [ -87.636763, 41.934868 ] } },
{ "type": "Feature", "properties": { "FID": 86, "Hospital": "Shriners Hospitals for Children", "StreetAddress": "2211 North Oak Park Avenue", "City": "Chicago", "ZIP_Code": 60707, "X": -87.795084, "Y": 41.919692, "Total_Bed": 60, "AvailableBed": 27, "Bed_in_Use": 33, "Adult_ICU_Bed": 15, "Total_Vent": 5, "Available_Vent": 3, "Vent_in_Use": 2, "CovidConfirmedPatient": 28, "CovidPatient_in_ICU": 2, "CovidPatientVent": 1 }, "geometry": { "type": "Point", "coordinates": [ -87.795084, 41.919692 ] } },
{ "type": "Feature", "properties": { "FID": 32, "Hospital": "Little Company of Mary Hospital", "StreetAddress": "2800 W 95th St", "City": "Evergreen Park", "ZIP_Code": 60805, "X": -87.691791, "Y": 41.720898, "Total_Bed": 298, "AvailableBed": 134, "Bed_in_Use": 164, "Adult_ICU_Bed": 75, "Total_Vent": 24, "Available_Vent": 14, "Vent_in_Use": 10, "CovidConfirmedPatient": 140, "CovidPatient_in_ICU": 8, "CovidPatientVent": 5 }, "geometry": { "type": "Point", "coordinates": [ -87.691791, 41.720898 ] } },
{ "type": "Feature", "properties": { "FID": 56, "Hospital": "Riverside Medical Center", "StreetAddress": "350 N. Wall Street", "City": "Kankakee", "ZIP_Code": 60901, "X": -87.882393, "Y": 41.123786, "Total_Bed": 318, "AvailableBed": 143, "Bed_in_Use": 175, "Adult_ICU_Bed": 80, "Total_Vent": 26, "Available_Vent": 15, "Vent_in_Use": 11, "CovidConfirmedPatient": 149, "CovidPatient_in_ICU": 8, "CovidPatientVent": 6 }, "geometry": { "type": "Point", "coordinates": [ -87.882393, 41.123786 ] } },
{ "type": "Feature", "properties": { "FID": 17, "Hospital": "Gibson Community Hospital", "StreetAddress": "1120 North Melvin Street", "City": "Gibson City", "ZIP_Code": 60936, "X": -88.370676, "Y": 40.477799, "Total_Bed": 41, "AvailableBed": 18, "Bed_in_Use": 23, "Adult_ICU_Bed": 10, "Total_Vent": 3, "Available_Vent": 2, "Vent_in_Use": 1, "CovidConfirmedPatient": 19, "CovidPatient_in_ICU": 1, "CovidPatientVent": 1 }, "geometry": { "type": "Point", "coordinates": [ -88.370676, 40.477799 ] } },
{ "type": "Feature", "properties": { "FID": 28, "Hospital": "The Iroquois Memorial Hospital and Resident Home", "StreetAddress": "200 East Fairman Avenue", "City": "Watseka", "ZIP_Code": 60970, "X": -87.732485, "Y": 40.765545, "Total_Bed": 25, "AvailableBed": 11, "Bed_in_Use": 14, "Adult_ICU_Bed": 6, "Total_Vent": 2, "Available_Vent": 1, "Vent_in_Use": 1, "CovidConfirmedPatient": 12, "CovidPatient_in_ICU": 1, "CovidPatientVent": 0 }, "geometry": { "type": "Point", "coordinates": [ -87.732485, 40.765545 ] } },
{ "type": "Feature", "properties": { "FID": 160, "Hospital": "SwedishAmerican Medical Center - Belvidere", "StreetAddress": "1625 South State Street", "City": "Belvidere", "ZIP_Code": 61008, "X": -88.839191, "Y": 42.243104, "Total_Bed": 34, "AvailableBed": 15, "Bed_in_Use": 19, "Adult_ICU_Bed": 9, "Total_Vent": 3, "Available_Vent": 2, "Vent_in_Use": 1, "CovidConfirmedPatient": 16, "CovidPatient_in_ICU": 1, "CovidPatientVent": 1 }, "geometry": { "type": "Point", "coordinates": [ -88.839191, 42.243104 ] } },
{ "type": "Feature", "properties": { "FID": 10, "Hospital": "Katherine Shaw Bethea Hospital", "StreetAddress": "403 E First Street", "City": "Dixon", "ZIP_Code": 61021, "X": -89.480258, "Y": 41.844256, "Total_Bed": 80, "AvailableBed": 36, "Bed_in_Use": 44, "Adult_ICU_Bed": 20, "Total_Vent": 7, "Available_Vent": 4, "Vent_in_Use": 3, "CovidConfirmedPatient": 38, "CovidPatient_in_ICU": 2, "CovidPatientVent": 1 }, "geometry": { "type": "Point", "coordinates": [ -89.480258, 41.844256 ] } },
{ "type": "Feature", "properties": { "FID": 16, "Hospital": "FHN Memorial Hospital", "StreetAddress": "1045 W. Stephenson", "City": "Freeport", "ZIP_Code": 61032, "X": -89.63843, "Y": 42.295792, "Total_Bed": 100, "AvailableBed": 45, "Bed_in_Use": 55, "Adult_ICU_Bed": 25, "Total_Vent": 8, "Available_Vent": 5, "Vent_in_Use": 3, "CovidConfirmedPatient": 47, "CovidPatient_in_ICU": 3, "CovidPatientVent": 2 }, "geometry": { "type": "Point", "coordinates": [ -89.63843, 42.295792 ] } },
{ "type": "Feature", "properties": { "FID": 158, "Hospital": "Midwest Medical Center", "StreetAddress": "One Medical Center Drive", "City": "Galena", "ZIP_Code": 61036, "X": -90.456935, "Y": 42.44659, "Total_Bed": 25, "AvailableBed": 11, "Bed_in_Use": 14, "Adult_ICU_Bed": 6, "Total_Vent": 2, "Available_Vent": 1, "Vent_in_Use": 1, "CovidConfirmedPatient": 12, "CovidPatient_in_ICU": 1, "CovidPatientVent": 0 }, "geometry": { "type": "Point", "coordinates": [ -90.456935, 42.44659 ] } },
{ "type": "Feature", "properties": { "FID": 57, "Hospital": "Rochelle Community Hospital", "StreetAddress": "900 North Second Street", "City": "Rochelle", "ZIP_Code": 61068, "X": -89.062856, "Y": 41.928565, "Total_Bed": 16, "AvailableBed": 7, "Bed_in_Use": 9, "Adult_ICU_Bed": 4, "Total_Vent": 1, "Available_Vent": 1, "Vent_in_Use": 1, "CovidConfirmedPatient": 8, "CovidPatient_in_ICU": 0, "CovidPatientVent": 0 }, "geometry": { "type": "Point", "coordinates": [ -89.062856, 41.928565 ] } },
{ "type": "Feature", "properties": { "FID": 6, "Hospital": "CGH Medical Center", "StreetAddress": "100 East LeFevre", "City": "Sterling", "ZIP_Code": 61081, "X": -89.697041, "Y": 41.80158, "Total_Bed": 98, "AvailableBed": 44, "Bed_in_Use": 54, "Adult_ICU_Bed": 25, "Total_Vent": 8, "Available_Vent": 5, "Vent_in_Use": 3, "CovidConfirmedPatient": 46, "CovidPatient_in_ICU": 3, "CovidPatientVent": 2 }, "geometry": { "type": "Point", "coordinates": [ -89.697041, 41.80158 ] } },
{ "type": "Feature", "properties": { "FID": 58, "Hospital": "Javon Bea Hospital", "StreetAddress": "2400 N. Rockton Avenue", "City": "Rockford", "ZIP_Code": 61103, "X": -89.096809, "Y": 42.298459, "Total_Bed": 288, "AvailableBed": 130, "Bed_in_Use": 158, "Adult_ICU_Bed": 72, "Total_Vent": 23, "Available_Vent": 14, "Vent_in_Use": 10, "CovidConfirmedPatient": 135, "CovidPatient_in_ICU": 8, "CovidPatientVent": 5 }, "geometry": { "type": "Point", "coordinates": [ -89.096809, 42.298459 ] } },
{ "type": "Feature", "properties": { "FID": 66, "Hospital": "OSF Saint Anthony Medical Center", "StreetAddress": "5666 E. State St.", "City": "Rockford", "ZIP_Code": 61108, "X": -89.006825, "Y": 42.265818, "Total_Bed": 254, "AvailableBed": 114, "Bed_in_Use": 140, "Adult_ICU_Bed": 64, "Total_Vent": 21, "Available_Vent": 12, "Vent_in_Use": 8, "CovidConfirmedPatient": 119, "CovidPatient_in_ICU": 7, "CovidPatientVent": 5 }, "geometry": { "type": "Point", "coordinates": [ -89.006825, 42.265818 ] } },
{ "type": "Feature", "properties": { "FID": 139, "Hospital": "Van Matre Encompass Health Rehabilitation Hospital", "StreetAddress": "950 S. Mulford Road", "City": "Rockford", "ZIP_Code": 61108, "X": -88.999648, "Y": 42.258907, "Total_Bed": 61, "AvailableBed": 27, "Bed_in_Use": 34, "Adult_ICU_Bed": 15, "Total_Vent": 5, "Available_Vent": 3, "Vent_in_Use": 2, "CovidConfirmedPatient": 29, "CovidPatient_in_ICU": 2, "CovidPatientVent": 1 }, "geometry": { "type": "Point", "coordinates": [ -88.999648, 42.258907 ] } },
{ "type": "Feature", "properties": { "FID": 89, "Hospital": "UnityPoint Health - Trinity Rock Island", "StreetAddress": "2701 17th Street", "City": "Rock Island", "ZIP_Code": 61201, "X": -90.572775, "Y": 41.483398, "Total_Bed": 327, "AvailableBed": 147, "Bed_in_Use": 180, "Adult_ICU_Bed": 82, "Total_Vent": 27, "Available_Vent": 16, "Vent_in_Use": 11, "CovidConfirmedPatient": 154, "CovidPatient_in_ICU": 9, "CovidPatientVent": 6 }, "geometry": { "type": "Point", "coordinates": [ -90.572775, 41.483398 ] } },
{ "type": "Feature", "properties": { "FID": 188, "Hospital": "Genesis Medical Center - Aledo Campus", "StreetAddress": "409 NW Ninth Avenue", "City": "Aledo", "ZIP_Code": 61231, "X": -90.758524, "Y": 41.205403, "Total_Bed": 22, "AvailableBed": 10, "Bed_in_Use": 12, "Adult_ICU_Bed": 6, "Total_Vent": 2, "Available_Vent": 1, "Vent_in_Use": 1, "CovidConfirmedPatient": 10, "CovidPatient_in_ICU": 1, "CovidPatientVent": 0 }, "geometry": { "type": "Point", "coordinates": [ -90.758524, 41.205403 ] } },
{ "type": "Feature", "properties": { "FID": 20, "Hospital": "Hammond-Henry Hospital", "StreetAddress": "600 N. College Ave.", "City": "Geneseo", "ZIP_Code": 61254, "X": -90.158375, "Y": 41.46028, "Total_Bed": 61, "AvailableBed": 27, "Bed_in_Use": 34, "Adult_ICU_Bed": 15, "Total_Vent": 5, "Available_Vent": 3, "Vent_in_Use": 2, "CovidConfirmedPatient": 29, "CovidPatient_in_ICU": 2, "CovidPatientVent": 1 }, "geometry": { "type": "Point", "coordinates": [ -90.158375, 41.46028 ] } },
{ "type": "Feature", "properties": { "FID": 135, "Hospital": "UnityPoint Health - Trinity Moline", "StreetAddress": "500 john Deere Road", "City": "Moline", "ZIP_Code": 61265, "X": -90.531328, "Y": 41.470445, "Total_Bed": 38, "AvailableBed": 17, "Bed_in_Use": 21, "Adult_ICU_Bed": 10, "Total_Vent": 3, "Available_Vent": 2, "Vent_in_Use": 1, "CovidConfirmedPatient": 18, "CovidPatient_in_ICU": 1, "CovidPatientVent": 1 }, "geometry": { "type": "Point", "coordinates": [ -90.531328, 41.470445 ] } },
{ "type": "Feature", "properties": { "FID": 44, "Hospital": "Morrison Community Hospital", "StreetAddress": "303 N. Jackson Street", "City": "Morrison", "ZIP_Code": 61270, "X": -89.956151, "Y": 41.809766, "Total_Bed": 25, "AvailableBed": 11, "Bed_in_Use": 14, "Adult_ICU_Bed": 6, "Total_Vent": 2, "Available_Vent": 1, "Vent_in_Use": 1, "CovidConfirmedPatient": 12, "CovidPatient_in_ICU": 1, "CovidPatientVent": 0 }, "geometry": { "type": "Point", "coordinates": [ -89.956151, 41.809766 ] } },
{ "type": "Feature", "properties": { "FID": 152, "Hospital": "Genesis Medical Center - Silvis Campus", "StreetAddress": "801 Illini Drive", "City": "Silvis", "ZIP_Code": 61282, "X": -90.41858, "Y": 41.493085, "Total_Bed": 145, "AvailableBed": 65, "Bed_in_Use": 80, "Adult_ICU_Bed": 36, "Total_Vent": 12, "Available_Vent": 7, "Vent_in_Use": 5, "CovidConfirmedPatient": 68, "CovidPatient_in_ICU": 4, "CovidPatientVent": 3 }, "geometry": { "type": "Point", "coordinates": [ -90.41858, 41.493085 ] } },
{ "type": "Feature", "properties": { "FID": 162, "Hospital": "OSF Saint Elizabeth Medical Center", "StreetAddress": "1100 East Norris Drive", "City": "Ottawa", "ZIP_Code": 61350, "X": -88.82462, "Y": 41.35631, "Total_Bed": 97, "AvailableBed": 44, "Bed_in_Use": 53, "Adult_ICU_Bed": 24, "Total_Vent": 8, "Available_Vent": 5, "Vent_in_Use": 3, "CovidConfirmedPatient": 46, "CovidPatient_in_ICU": 3, "CovidPatientVent": 2 }, "geometry": { "type": "Point", "coordinates": [ -88.82462, 41.35631 ] } },
{ "type": "Feature", "properties": { "FID": 93, "Hospital": "Illinois Valley Community Hospital", "StreetAddress": "925 West Street", "City": "Peru", "ZIP_Code": 61354, "X": -89.125198, "Y": 41.328826, "Total_Bed": 64, "AvailableBed": 29, "Bed_in_Use": 35, "Adult_ICU_Bed": 16, "Total_Vent": 5, "Available_Vent": 3, "Vent_in_Use": 2, "CovidConfirmedPatient": 30, "CovidPatient_in_ICU": 2, "CovidPatientVent": 1 }, "geometry": { "type": "Point", "coordinates": [ -89.125198, 41.328826 ] } },
{ "type": "Feature", "properties": { "FID": 53, "Hospital": "Perry Memorial Hospital", "StreetAddress": "530 Park Ave. East", "City": "Princeton", "ZIP_Code": 61356, "X": -89.456011, "Y": 41.367994, "Total_Bed": 25, "AvailableBed": 11, "Bed_in_Use": 14, "Adult_ICU_Bed": 6, "Total_Vent": 2, "Available_Vent": 1, "Vent_in_Use": 1, "CovidConfirmedPatient": 12, "CovidPatient_in_ICU": 1, "CovidPatientVent": 0 }, "geometry": { "type": "Point", "coordinates": [ -89.456011, 41.367994 ] } },
{ "type": "Feature", "properties": { "FID": 75, "Hospital": "St. Margaret's Hospital", "StreetAddress": "600 East First Street", "City": "Spring Valley", "ZIP_Code": 61362, "X": -89.19409, "Y": 41.328693, "Total_Bed": 57, "AvailableBed": 26, "Bed_in_Use": 31, "Adult_ICU_Bed": 14, "Total_Vent": 5, "Available_Vent": 3, "Vent_in_Use": 2, "CovidConfirmedPatient": 27, "CovidPatient_in_ICU": 1, "CovidPatientVent": 1 }, "geometry": { "type": "Point", "coordinates": [ -89.19409, 41.328693 ] } },
{ "type": "Feature", "properties": { "FID": 78, "Hospital": "OSF St. Mary Medical Center", "StreetAddress": "3333 N. Seminary St", "City": "Galesburg", "ZIP_Code": 61401, "X": -90.363585, "Y": 40.987494, "Total_Bed": 81, "AvailableBed": 36, "Bed_in_Use": 45, "Adult_ICU_Bed": 20, "Total_Vent": 7, "Available_Vent": 4, "Vent_in_Use": 3, "CovidConfirmedPatient": 38, "CovidPatient_in_ICU": 2, "CovidPatientVent": 1 }, "geometry": { "type": "Point", "coordinates": [ -90.363585, 40.987494 ] } },
{ "type": "Feature", "properties": { "FID": 147, "Hospital": "Galesburg Cottage Hospital", "StreetAddress": "695 North Kellogg Street", "City": "Galesburg", "ZIP_Code": 61401, "X": -90.366168, "Y": 40.955747, "Total_Bed": 143, "AvailableBed": 64, "Bed_in_Use": 79, "Adult_ICU_Bed": 36, "Total_Vent": 12, "Available_Vent": 7, "Vent_in_Use": 5, "CovidConfirmedPatient": 67, "CovidPatient_in_ICU": 4, "CovidPatientVent": 3 }, "geometry": { "type": "Point", "coordinates": [ -90.366168, 40.955747 ] } },
{ "type": "Feature", "properties": { "FID": 193, "Hospital": "OSF HealthCare Saint Luke Medical Center", "StreetAddress": "1051 W. South St.", "City": "Kewanee", "ZIP_Code": 61443, "X": -89.947734, "Y": 41.222143, "Total_Bed": 25, "AvailableBed": 11, "Bed_in_Use": 14, "Adult_ICU_Bed": 6, "Total_Vent": 2, "Available_Vent": 1, "Vent_in_Use": 1, "CovidConfirmedPatient": 12, "CovidPatient_in_ICU": 1, "CovidPatientVent": 0 }, "geometry": { "type": "Point", "coordinates": [ -89.947734, 41.222143 ] } },
{ "type": "Feature", "properties": { "FID": 37, "Hospital": "McDonough District Hospital", "StreetAddress": "525 East Grant St", "City": "Macomb", "ZIP_Code": 61455, "X": -90.663599, "Y": 40.447903, "Total_Bed": 60, "AvailableBed": 27, "Bed_in_Use": 33, "Adult_ICU_Bed": 15, "Total_Vent": 5, "Available_Vent": 3, "Vent_in_Use": 2, "CovidConfirmedPatient": 28, "CovidPatient_in_ICU": 2, "CovidPatientVent": 1 }, "geometry": { "type": "Point", "coordinates": [ -90.663599, 40.447903 ] } },
{ "type": "Feature", "properties": { "FID": 154, "Hospital": "OSF Holy Family Medical Center", "StreetAddress": "1000 West Harlem Avenue", "City": "Monmouth", "ZIP_Code": 61462, "X": -90.65831, "Y": 40.921317, "Total_Bed": 23, "AvailableBed": 10, "Bed_in_Use": 13, "Adult_ICU_Bed": 6, "Total_Vent": 2, "Available_Vent": 1, "Vent_in_Use": 1, "CovidConfirmedPatient": 11, "CovidPatient_in_ICU": 1, "CovidPatientVent": 0 }, "geometry": { "type": "Point", "coordinates": [ -90.65831, 40.921317 ] } },
{ "type": "Feature", "properties": { "FID": 18, "Hospital": "Graham Hospital", "StreetAddress": "210 West Walnut", "City": "Canton", "ZIP_Code": 61520, "X": -90.038222, "Y": 40.55328, "Total_Bed": 87, "AvailableBed": 39, "Bed_in_Use": 48, "Adult_ICU_Bed": 22, "Total_Vent": 7, "Available_Vent": 4, "Vent_in_Use": 3, "CovidConfirmedPatient": 41, "CovidPatient_in_ICU": 2, "CovidPatientVent": 2 }, "geometry": { "type": "Point", "coordinates": [ -90.038222, 40.55328 ] } },
{ "type": "Feature", "properties": { "FID": 168, "Hospital": "Advocate Eureka Hospital", "StreetAddress": "101 South Major Street", "City": "Eureka", "ZIP_Code": 61530, "X": -89.271624, "Y": 40.72133, "Total_Bed": 25, "AvailableBed": 11, "Bed_in_Use": 14, "Adult_ICU_Bed": 6, "Total_Vent": 2, "Available_Vent": 1, "Vent_in_Use": 1, "CovidConfirmedPatient": 12, "CovidPatient_in_ICU": 1, "CovidPatientVent": 0 }, "geometry": { "type": "Point", "coordinates": [ -89.271624, 40.72133 ] } },
{ "type": "Feature", "properties": { "FID": 52, "Hospital": "Pekin Memorial Hospital", "StreetAddress": "600 South 13th Street", "City": "Pekin", "ZIP_Code": 61554, "X": -89.633057, "Y": 40.563751, "Total_Bed": 107, "AvailableBed": 48, "Bed_in_Use": 59, "Adult_ICU_Bed": 27, "Total_Vent": 9, "Available_Vent": 5, "Vent_in_Use": 4, "CovidConfirmedPatient": 50, "CovidPatient_in_ICU": 3, "CovidPatientVent": 2 }, "geometry": { "type": "Point", "coordinates": [ -89.633057, 40.563751 ] } },
{ "type": "Feature", "properties": { "FID": 55, "Hospital": "Proctor Community Hospital", "StreetAddress": "5409 N. Knoxville Ave.", "City": "Peoria", "ZIP_Code": 61614, "X": -89.593295, "Y": 40.752305, "Total_Bed": 210, "AvailableBed": 95, "Bed_in_Use": 115, "Adult_ICU_Bed": 53, "Total_Vent": 17, "Available_Vent": 10, "Vent_in_Use": 7, "CovidConfirmedPatient": 99, "CovidPatient_in_ICU": 6, "CovidPatientVent": 4 }, "geometry": { "type": "Point", "coordinates": [ -89.593295, 40.752305 ] } },
{ "type": "Feature", "properties": { "FID": 74, "Hospital": "St. Joseph Medical Center", "StreetAddress": "2200 East Washington", "City": "Bloomington", "ZIP_Code": 61701, "X": -88.954262, "Y": 40.480055, "Total_Bed": 149, "AvailableBed": 67, "Bed_in_Use": 82, "Adult_ICU_Bed": 37, "Total_Vent": 12, "Available_Vent": 7, "Vent_in_Use": 5, "CovidConfirmedPatient": 70, "CovidPatient_in_ICU": 4, "CovidPatientVent": 3 }, "geometry": { "type": "Point", "coordinates": [ -88.954262, 40.480055 ] } },
{ "type": "Feature", "properties": { "FID": 31, "Hospital": "Warner Hospital & Health Services", "StreetAddress": "422 West White Street", "City": "Clinton", "ZIP_Code": 61727, "X": -88.964731, "Y": 40.148919, "Total_Bed": 25, "AvailableBed": 11, "Bed_in_Use": 14, "Adult_ICU_Bed": 6, "Total_Vent": 2, "Available_Vent": 1, "Vent_in_Use": 1, "CovidConfirmedPatient": 12, "CovidPatient_in_ICU": 1, "CovidPatientVent": 0 }, "geometry": { "type": "Point", "coordinates": [ -88.964731, 40.148919 ] } },
{ "type": "Feature", "properties": { "FID": 26, "Hospital": "Hopedale Hospital", "StreetAddress": "107 Tremont Street", "City": "Hopedale", "ZIP_Code": 61747, "X": -89.417668, "Y": 40.417967, "Total_Bed": 25, "AvailableBed": 11, "Bed_in_Use": 14, "Adult_ICU_Bed": 6, "Total_Vent": 2, "Available_Vent": 1, "Vent_in_Use": 1, "CovidConfirmedPatient": 12, "CovidPatient_in_ICU": 1, "CovidPatientVent": 0 }, "geometry": { "type": "Point", "coordinates": [ -89.417668, 40.417967 ] } },
{ "type": "Feature", "properties": { "FID": 167, "Hospital": "Advocate BroMenn Medical Center", "StreetAddress": "1304 Franklin Avenue", "City": "Normal", "ZIP_Code": 61761, "X": -88.991502, "Y": 40.497315, "Total_Bed": 221, "AvailableBed": 99, "Bed_in_Use": 122, "Adult_ICU_Bed": 55, "Total_Vent": 18, "Available_Vent": 11, "Vent_in_Use": 7, "CovidConfirmedPatient": 104, "CovidPatient_in_ICU": 6, "CovidPatientVent": 4 }, "geometry": { "type": "Point", "coordinates": [ -88.991502, 40.497315 ] } },
{ "type": "Feature", "properties": { "FID": 143, "Hospital": "OSF Saint James Medical Center", "StreetAddress": "2500 W. Reynolds", "City": "Pontiac", "ZIP_Code": 61764, "X": -88.67867, "Y": 40.873363, "Total_Bed": 42, "AvailableBed": 19, "Bed_in_Use": 23, "Adult_ICU_Bed": 11, "Total_Vent": 3, "Available_Vent": 2, "Vent_in_Use": 1, "CovidConfirmedPatient": 20, "CovidPatient_in_ICU": 1, "CovidPatientVent": 1 }, "geometry": { "type": "Point", "coordinates": [ -88.67867, 40.873363 ] } },
{ "type": "Feature", "properties": { "FID": 97, "Hospital": "Carle Foundation Hospital", "StreetAddress": "611 West Park Street", "City": "Urbana", "ZIP_Code": 61801, "X": -88.213657, "Y": 40.117403, "Total_Bed": 413, "AvailableBed": 186, "Bed_in_Use": 227, "Adult_ICU_Bed": 103, "Total_Vent": 34, "Available_Vent": 20, "Vent_in_Use": 14, "CovidConfirmedPatient": 194, "CovidPatient_in_ICU": 11, "CovidPatientVent": 8 }, "geometry": { "type": "Point", "coordinates": [ -88.213657, 40.117403 ] } },
{ "type": "Feature", "properties": { "FID": 209, "Hospital": "OSF Healthcare Heart of Mary Medical Center", "StreetAddress": "1400 W Park st", "City": "Urbana", "ZIP_Code": 61801, "X": -88.22725, "Y": 40.117424, "Total_Bed": 210, "AvailableBed": 95, "Bed_in_Use": 115, "Adult_ICU_Bed": 53, "Total_Vent": 17, "Available_Vent": 10, "Vent_in_Use": 7, "CovidConfirmedPatient": 99, "CovidPatient_in_ICU": 6, "CovidPatientVent": 4 }, "geometry": { "type": "Point", "coordinates": [ -88.22725, 40.117424 ] } },
{ "type": "Feature", "properties": { "FID": 113, "Hospital": "The Pavilion Foundation", "StreetAddress": "809 West Church Street", "City": "Champaign", "ZIP_Code": 61820, "X": -88.256239, "Y": 40.118234, "Total_Bed": 72, "AvailableBed": 32, "Bed_in_Use": 40, "Adult_ICU_Bed": 18, "Total_Vent": 6, "Available_Vent": 3, "Vent_in_Use": 2, "CovidConfirmedPatient": 34, "CovidPatient_in_ICU": 2, "CovidPatientVent": 1 }, "geometry": { "type": "Point", "coordinates": [ -88.256239, 40.118234 ] } },
{ "type": "Feature", "properties": { "FID": 208, "Hospital": "OSF Healthcare Sacred Heart Medical Center", "StreetAddress": "812 N Logan Ave", "City": "Danville", "ZIP_Code": 61832, "X": -87.644936, "Y": 40.135801, "Total_Bed": 174, "AvailableBed": 78, "Bed_in_Use": 96, "Adult_ICU_Bed": 44, "Total_Vent": 14, "Available_Vent": 8, "Vent_in_Use": 6, "CovidConfirmedPatient": 82, "CovidPatient_in_ICU": 5, "CovidPatientVent": 3 }, "geometry": { "type": "Point", "coordinates": [ -87.644936, 40.135801 ] } },
{ "type": "Feature", "properties": { "FID": 180, "Hospital": "Kirby Medical Center", "StreetAddress": "1000 Medical Center Drive", "City": "Monticello", "ZIP_Code": 61856, "X": -88.558188, "Y": 40.059718, "Total_Bed": 16, "AvailableBed": 7, "Bed_in_Use": 9, "Adult_ICU_Bed": 4, "Total_Vent": 1, "Available_Vent": 1, "Vent_in_Use": 1, "CovidConfirmedPatient": 8, "CovidPatient_in_ICU": 0, "CovidPatientVent": 0 }, "geometry": { "type": "Point", "coordinates": [ -88.558188, 40.059718 ] } },
{ "type": "Feature", "properties": { "FID": 92, "Hospital": "Sarah Bush Lincoln Health Center", "StreetAddress": "1000 Health Center Drive", "City": "Mattoon", "ZIP_Code": 61938, "X": -88.275766, "Y": 39.488052, "Total_Bed": 149, "AvailableBed": 67, "Bed_in_Use": 82, "Adult_ICU_Bed": 37, "Total_Vent": 12, "Available_Vent": 7, "Vent_in_Use": 5, "CovidConfirmedPatient": 70, "CovidPatient_in_ICU": 4, "CovidPatientVent": 3 }, "geometry": { "type": "Point", "coordinates": [ -88.275766, 39.488052 ] } },
{ "type": "Feature", "properties": { "FID": 50, "Hospital": "Horizon Health", "StreetAddress": "721 East Court St.", "City": "Paris", "ZIP_Code": 61944, "X": -87.677673, "Y": 39.606438, "Total_Bed": 25, "AvailableBed": 11, "Bed_in_Use": 14, "Adult_ICU_Bed": 6, "Total_Vent": 2, "Available_Vent": 1, "Vent_in_Use": 1, "CovidConfirmedPatient": 12, "CovidPatient_in_ICU": 1, "CovidPatientVent": 0 }, "geometry": { "type": "Point", "coordinates": [ -87.677673, 39.606438 ] } },
{ "type": "Feature", "properties": { "FID": 1, "Hospital": "Alton Memorial Hospital", "StreetAddress": "One Memorial Drive", "City": "Alton", "ZIP_Code": 62002, "X": -90.156846, "Y": 38.900258, "Total_Bed": 209, "AvailableBed": 94, "Bed_in_Use": 115, "Adult_ICU_Bed": 52, "Total_Vent": 17, "Available_Vent": 10, "Vent_in_Use": 7, "CovidConfirmedPatient": 98, "CovidPatient_in_ICU": 5, "CovidPatientVent": 4 }, "geometry": { "type": "Point", "coordinates": [ -90.156846, 38.900258 ] } },
{ "type": "Feature", "properties": { "FID": 195, "Hospital": "OSF HealthCare Saint Anthony's Health Center", "StreetAddress": "1 Saint Anthony's Way", "City": "Alton", "ZIP_Code": 62002, "X": -90.173412, "Y": 38.908346, "Total_Bed": 140, "AvailableBed": 63, "Bed_in_Use": 77, "Adult_ICU_Bed": 35, "Total_Vent": 11, "Available_Vent": 7, "Vent_in_Use": 5, "CovidConfirmedPatient": 66, "CovidPatient_in_ICU": 4, "CovidPatientVent": 3 }, "geometry": { "type": "Point", "coordinates": [ -90.173412, 38.908346 ] } },
{ "type": "Feature", "properties": { "FID": 81, "Hospital": "Thomas H Boyd Memorial Hospital", "StreetAddress": "800 School Street", "City": "Carrollton", "ZIP_Code": 62016, "X": -90.412407, "Y": 39.296208, "Total_Bed": 25, "AvailableBed": 11, "Bed_in_Use": 14, "Adult_ICU_Bed": 6, "Total_Vent": 2, "Available_Vent": 1, "Vent_in_Use": 1, "CovidConfirmedPatient": 12, "CovidPatient_in_ICU": 1, "CovidPatientVent": 0 }, "geometry": { "type": "Point", "coordinates": [ -90.412407, 39.296208 ] } },
{ "type": "Feature", "properties": { "FID": 140, "Hospital": "Gateway Regional Medical Center", "StreetAddress": "2100 Madison Avenue", "City": "Granite City", "ZIP_Code": 62040, "X": -90.144805, "Y": 38.700975, "Total_Bed": 338, "AvailableBed": 152, "Bed_in_Use": 186, "Adult_ICU_Bed": 85, "Total_Vent": 27, "Available_Vent": 16, "Vent_in_Use": 11, "CovidConfirmedPatient": 159, "CovidPatient_in_ICU": 9, "CovidPatientVent": 6 }, "geometry": { "type": "Point", "coordinates": [ -90.144805, 38.700975 ] } },
{ "type": "Feature", "properties": { "FID": 23, "Hospital": "Hillsboro Area Hospital", "StreetAddress": "1200 E. Tremont St.", "City": "Hillsboro", "ZIP_Code": 62049, "X": -89.481121, "Y": 39.15354, "Total_Bed": 25, "AvailableBed": 11, "Bed_in_Use": 14, "Adult_ICU_Bed": 6, "Total_Vent": 2, "Available_Vent": 1, "Vent_in_Use": 1, "CovidConfirmedPatient": 12, "CovidPatient_in_ICU": 1, "CovidPatientVent": 0 }, "geometry": { "type": "Point", "coordinates": [ -89.481121, 39.15354 ] } },
{ "type": "Feature", "properties": { "FID": 30, "Hospital": "Jersey Community Hospital", "StreetAddress": "400 Maple Summit Road", "City": "Jerseyville", "ZIP_Code": 62052, "X": -90.341657, "Y": 39.11062, "Total_Bed": 43, "AvailableBed": 19, "Bed_in_Use": 24, "Adult_ICU_Bed": 11, "Total_Vent": 3, "Available_Vent": 2, "Vent_in_Use": 1, "CovidConfirmedPatient": 20, "CovidPatient_in_ICU": 1, "CovidPatientVent": 1 }, "geometry": { "type": "Point", "coordinates": [ -90.341657, 39.11062 ] } },
{ "type": "Feature", "properties": { "FID": 69, "Hospital": "St. Francis Hospital", "StreetAddress": "1215 Franciscan Drive", "City": "Litchfield", "ZIP_Code": 62056, "X": -89.640464, "Y": 39.179776, "Total_Bed": 25, "AvailableBed": 11, "Bed_in_Use": 14, "Adult_ICU_Bed": 6, "Total_Vent": 2, "Available_Vent": 1, "Vent_in_Use": 1, "CovidConfirmedPatient": 12, "CovidPatient_in_ICU": 1, "CovidPatientVent": 0 }, "geometry": { "type": "Point", "coordinates": [ -89.640464, 39.179776 ] } },
{ "type": "Feature", "properties": { "FID": 104, "Hospital": "Anderson Hospital", "StreetAddress": "6800 State Route 162", "City": "Maryville", "ZIP_Code": 62062, "X": -89.947287, "Y": 38.738149, "Total_Bed": 154, "AvailableBed": 69, "Bed_in_Use": 85, "Adult_ICU_Bed": 39, "Total_Vent": 13, "Available_Vent": 7, "Vent_in_Use": 5, "CovidConfirmedPatient": 72, "CovidPatient_in_ICU": 4, "CovidPatientVent": 3 }, "geometry": { "type": "Point", "coordinates": [ -89.947287, 38.738149 ] } },
{ "type": "Feature", "properties": { "FID": 7, "Hospital": "Community Memorial Hospital", "StreetAddress": "400 Caldwell Street", "City": "Staunton", "ZIP_Code": 62088, "X": -89.789846, "Y": 39.01519, "Total_Bed": 25, "AvailableBed": 11, "Bed_in_Use": 14, "Adult_ICU_Bed": 6, "Total_Vent": 2, "Available_Vent": 1, "Vent_in_Use": 1, "CovidConfirmedPatient": 12, "CovidPatient_in_ICU": 1, "CovidPatientVent": 0 }, "geometry": { "type": "Point", "coordinates": [ -89.789846, 39.01519 ] } },
{ "type": "Feature", "properties": { "FID": 107, "Hospital": "Touchette Regional Hospital", "StreetAddress": "5900 Bond Avenue", "City": "Centreville", "ZIP_Code": 62207, "X": -90.108249, "Y": 38.571755, "Total_Bed": 137, "AvailableBed": 62, "Bed_in_Use": 75, "Adult_ICU_Bed": 34, "Total_Vent": 11, "Available_Vent": 7, "Vent_in_Use": 5, "CovidConfirmedPatient": 64, "CovidPatient_in_ICU": 4, "CovidPatientVent": 3 }, "geometry": { "type": "Point", "coordinates": [ -90.108249, 38.571755 ] } },
{ "type": "Feature", "properties": { "FID": 38, "Hospital": "Memorial Hospital Belleville", "StreetAddress": "4500 Memorial Drive", "City": "Belleville", "ZIP_Code": 62226, "X": -90.020656, "Y": 38.550494, "Total_Bed": 222, "AvailableBed": 100, "Bed_in_Use": 122, "Adult_ICU_Bed": 56, "Total_Vent": 18, "Available_Vent": 11, "Vent_in_Use": 7, "CovidConfirmedPatient": 104, "CovidPatient_in_ICU": 6, "CovidPatientVent": 4 }, "geometry": { "type": "Point", "coordinates": [ -90.020656, 38.550494 ] } },
{ "type": "Feature", "properties": { "FID": 73, "Hospital": "St. Joseph's Hospital", "StreetAddress": "9515 Holy Cross Lane", "City": "Breese", "ZIP_Code": 62230, "X": -89.524424, "Y": 38.625182, "Total_Bed": 70, "AvailableBed": 32, "Bed_in_Use": 38, "Adult_ICU_Bed": 18, "Total_Vent": 6, "Available_Vent": 3, "Vent_in_Use": 2, "CovidConfirmedPatient": 33, "CovidPatient_in_ICU": 2, "CovidPatientVent": 1 }, "geometry": { "type": "Point", "coordinates": [ -89.524424, 38.625182 ] } },
{ "type": "Feature", "properties": { "FID": 40, "Hospital": "Memorial Hospital", "StreetAddress": "1900 State Street", "City": "Chester", "ZIP_Code": 62233, "X": -89.81146, "Y": 37.919434, "Total_Bed": 25, "AvailableBed": 11, "Bed_in_Use": 14, "Adult_ICU_Bed": 6, "Total_Vent": 2, "Available_Vent": 1, "Vent_in_Use": 1, "CovidConfirmedPatient": 12, "CovidPatient_in_ICU": 1, "CovidPatientVent": 0 }, "geometry": { "type": "Point", "coordinates": [ -89.81146, 37.919434 ] } },
{ "type": "Feature", "properties": { "FID": 148, "Hospital": "HSHS Holy Family Hospital, Inc.", "StreetAddress": "200 Healthcare Drive", "City": "Greenville", "ZIP_Code": 62246, "X": -89.408391, "Y": 38.903361, "Total_Bed": 42, "AvailableBed": 19, "Bed_in_Use": 23, "Adult_ICU_Bed": 11, "Total_Vent": 3, "Available_Vent": 2, "Vent_in_Use": 1, "CovidConfirmedPatient": 20, "CovidPatient_in_ICU": 1, "CovidPatientVent": 1 }, "geometry": { "type": "Point", "coordinates": [ -89.408391, 38.903361 ] } },
{ "type": "Feature", "properties": { "FID": 190, "Hospital": "St. Joseph's Hospital", "StreetAddress": "12866 Troxler Avenue", "City": "Highland", "ZIP_Code": 62249, "X": -89.667406, "Y": 38.757062, "Total_Bed": 25, "AvailableBed": 11, "Bed_in_Use": 14, "Adult_ICU_Bed": 6, "Total_Vent": 2, "Available_Vent": 1, "Vent_in_Use": 1, "CovidConfirmedPatient": 12, "CovidPatient_in_ICU": 1, "CovidPatientVent": 0 }, "geometry": { "type": "Point", "coordinates": [ -89.667406, 38.757062 ] } },
{ "type": "Feature", "properties": { "FID": 83, "Hospital": "Washington County Hospital", "StreetAddress": "705 S. Grand Avenue", "City": "Nashville", "ZIP_Code": 62263, "X": -89.390072, "Y": 38.338411, "Total_Bed": 50, "AvailableBed": 23, "Bed_in_Use": 27, "Adult_ICU_Bed": 13, "Total_Vent": 4, "Available_Vent": 2, "Vent_in_Use": 2, "CovidConfirmedPatient": 23, "CovidPatient_in_ICU": 1, "CovidPatientVent": 1 }, "geometry": { "type": "Point", "coordinates": [ -89.390072, 38.338411 ] } },
{ "type": "Feature", "properties": { "FID": 205, "Hospital": "Memorial Hospital East", "StreetAddress": "1404 Cross Street", "City": "Shiloh", "ZIP_Code": 62269, "X": -89.908654, "Y": 38.574251, "Total_Bed": 94, "AvailableBed": 42, "Bed_in_Use": 52, "Adult_ICU_Bed": 24, "Total_Vent": 8, "Available_Vent": 5, "Vent_in_Use": 3, "CovidConfirmedPatient": 44, "CovidPatient_in_ICU": 2, "CovidPatientVent": 2 }, "geometry": { "type": "Point", "coordinates": [ -89.908654, 38.574251 ] } },
{ "type": "Feature", "properties": { "FID": 198, "Hospital": "Pinckneyville Community Hospital", "StreetAddress": "5383 State Route 154 \/ P.O. Box 437", "City": "Pinckneyville", "ZIP_Code": 62274, "X": -89.34883, "Y": 38.083205, "Total_Bed": 17, "AvailableBed": 8, "Bed_in_Use": 9, "Adult_ICU_Bed": 4, "Total_Vent": 1, "Available_Vent": 1, "Vent_in_Use": 1, "CovidConfirmedPatient": 8, "CovidPatient_in_ICU": 0, "CovidPatientVent": 0 }, "geometry": { "type": "Point", "coordinates": [ -89.34883, 38.083205 ] } },
{ "type": "Feature", "properties": { "FID": 137, "Hospital": "Red Bud Regional Hospital", "StreetAddress": "325 Spring Street", "City": "Red Bud", "ZIP_Code": 62278, "X": -89.996445, "Y": 38.209621, "Total_Bed": 25, "AvailableBed": 11, "Bed_in_Use": 14, "Adult_ICU_Bed": 6, "Total_Vent": 2, "Available_Vent": 1, "Vent_in_Use": 1, "CovidConfirmedPatient": 12, "CovidPatient_in_ICU": 1, "CovidPatientVent": 0 }, "geometry": { "type": "Point", "coordinates": [ -89.996445, 38.209621 ] } },
{ "type": "Feature", "properties": { "FID": 64, "Hospital": "Sparta Community Hospital", "StreetAddress": "818 East Broadway", "City": "Sparta", "ZIP_Code": 62286, "X": -89.692386, "Y": 38.124405, "Total_Bed": 25, "AvailableBed": 11, "Bed_in_Use": 14, "Adult_ICU_Bed": 6, "Total_Vent": 2, "Available_Vent": 1, "Vent_in_Use": 1, "CovidConfirmedPatient": 12, "CovidPatient_in_ICU": 1, "CovidPatientVent": 0 }, "geometry": { "type": "Point", "coordinates": [ -89.692386, 38.124405 ] } },
{ "type": "Feature", "properties": { "FID": 3, "Hospital": "Blessing Hospital", "StreetAddress": "Broadway at 11th Street", "City": "Quincy", "ZIP_Code": 62301, "X": -91.398331, "Y": 39.93562, "Total_Bed": 307, "AvailableBed": 138, "Bed_in_Use": 169, "Adult_ICU_Bed": 77, "Total_Vent": 25, "Available_Vent": 15, "Vent_in_Use": 10, "CovidConfirmedPatient": 144, "CovidPatient_in_ICU": 8, "CovidPatientVent": 6 }, "geometry": { "type": "Point", "coordinates": [ -91.398331, 39.93562 ] } },
{ "type": "Feature", "properties": { "FID": 134, "Hospital": "Illini Community Hospital", "StreetAddress": "640 West Washington", "City": "Pittsfield", "ZIP_Code": 62363, "X": -90.814476, "Y": 39.606817, "Total_Bed": 35, "AvailableBed": 16, "Bed_in_Use": 19, "Adult_ICU_Bed": 9, "Total_Vent": 3, "Available_Vent": 2, "Vent_in_Use": 1, "CovidConfirmedPatient": 16, "CovidPatient_in_ICU": 1, "CovidPatientVent": 1 }, "geometry": { "type": "Point", "coordinates": [ -90.814476, 39.606817 ] } },
{ "type": "Feature", "properties": { "FID": 67, "Hospital": "St. Anthony's Memorial Hospital", "StreetAddress": "503 N Maple St", "City": "Effingham", "ZIP_Code": 62401, "X": -88.549262, "Y": 39.125844, "Total_Bed": 133, "AvailableBed": 60, "Bed_in_Use": 73, "Adult_ICU_Bed": 33, "Total_Vent": 11, "Available_Vent": 6, "Vent_in_Use": 4, "CovidConfirmedPatient": 63, "CovidPatient_in_ICU": 3, "CovidPatientVent": 2 }, "geometry": { "type": "Point", "coordinates": [ -88.549262, 39.125844 ] } },
{ "type": "Feature", "properties": { "FID": 178, "Hospital": "Lawrence County Memorial Hospital", "StreetAddress": "2200 State Street", "City": "Lawrenceville", "ZIP_Code": 62439, "X": -87.69538, "Y": 38.73001, "Total_Bed": 25, "AvailableBed": 11, "Bed_in_Use": 14, "Adult_ICU_Bed": 6, "Total_Vent": 2, "Available_Vent": 1, "Vent_in_Use": 1, "CovidConfirmedPatient": 12, "CovidPatient_in_ICU": 1, "CovidPatientVent": 0 }, "geometry": { "type": "Point", "coordinates": [ -87.69538, 38.73001 ] } },
{ "type": "Feature", "properties": { "FID": 117, "Hospital": "Richland Memorial Hospital", "StreetAddress": "800 E. Locust", "City": "Olney", "ZIP_Code": 62450, "X": -88.076937, "Y": 38.73504, "Total_Bed": 134, "AvailableBed": 60, "Bed_in_Use": 74, "Adult_ICU_Bed": 34, "Total_Vent": 11, "Available_Vent": 6, "Vent_in_Use": 4, "CovidConfirmedPatient": 63, "CovidPatient_in_ICU": 4, "CovidPatientVent": 2 }, "geometry": { "type": "Point", "coordinates": [ -88.076937, 38.73504 ] } },
{ "type": "Feature", "properties": { "FID": 8, "Hospital": "Crawford Memorial Hospital", "StreetAddress": "1205 S. Prairie St.", "City": "Robinson", "ZIP_Code": 62454, "X": -87.745965, "Y": 38.997598, "Total_Bed": 63, "AvailableBed": 28, "Bed_in_Use": 35, "Adult_ICU_Bed": 16, "Total_Vent": 5, "Available_Vent": 3, "Vent_in_Use": 2, "CovidConfirmedPatient": 30, "CovidPatient_in_ICU": 2, "CovidPatientVent": 1 }, "geometry": { "type": "Point", "coordinates": [ -87.745965, 38.997598 ] } },
{ "type": "Feature", "properties": { "FID": 15, "Hospital": "Fayette County Hospital", "StreetAddress": "650 West Taylor Street", "City": "Vandalia", "ZIP_Code": 62471, "X": -89.098433, "Y": 38.970617, "Total_Bed": 110, "AvailableBed": 50, "Bed_in_Use": 60, "Adult_ICU_Bed": 28, "Total_Vent": 9, "Available_Vent": 5, "Vent_in_Use": 4, "CovidConfirmedPatient": 52, "CovidPatient_in_ICU": 3, "CovidPatientVent": 2 }, "geometry": { "type": "Point", "coordinates": [ -89.098433, 38.970617 ] } },
{ "type": "Feature", "properties": { "FID": 76, "Hospital": "HSHS St. Mary's Hospital", "StreetAddress": "1800 E Lake Shore Drive", "City": "Decatur", "ZIP_Code": 62521, "X": -88.93186, "Y": 39.826377, "Total_Bed": 230, "AvailableBed": 104, "Bed_in_Use": 126, "Adult_ICU_Bed": 58, "Total_Vent": 19, "Available_Vent": 11, "Vent_in_Use": 8, "CovidConfirmedPatient": 108, "CovidPatient_in_ICU": 6, "CovidPatientVent": 4 }, "geometry": { "type": "Point", "coordinates": [ -88.93186, 39.826377 ] } },
{ "type": "Feature", "properties": { "FID": 9, "Hospital": "Decatur Memorial Hospital", "StreetAddress": "2300 North Edward Street", "City": "Decatur", "ZIP_Code": 62526, "X": -88.959479, "Y": 39.866785, "Total_Bed": 300, "AvailableBed": 135, "Bed_in_Use": 165, "Adult_ICU_Bed": 75, "Total_Vent": 24, "Available_Vent": 14, "Vent_in_Use": 10, "CovidConfirmedPatient": 141, "CovidPatient_in_ICU": 8, "CovidPatientVent": 5 }, "geometry": { "type": "Point", "coordinates": [ -88.959479, 39.866785 ] } },
{ "type": "Feature", "properties": { "FID": 49, "Hospital": "Pana Community Hospital", "StreetAddress": "101 E. 9th Street", "City": "Pana", "ZIP_Code": 62557, "X": -89.084124, "Y": 39.380245, "Total_Bed": 22, "AvailableBed": 10, "Bed_in_Use": 12, "Adult_ICU_Bed": 6, "Total_Vent": 2, "Available_Vent": 1, "Vent_in_Use": 1, "CovidConfirmedPatient": 10, "CovidPatient_in_ICU": 1, "CovidPatientVent": 0 }, "geometry": { "type": "Point", "coordinates": [ -89.084124, 39.380245 ] } },
{ "type": "Feature", "properties": { "FID": 63, "Hospital": "HSHS Good Shepherd Hospital, INC.", "StreetAddress": "200 S. Cedar Street", "City": "Shelbyville", "ZIP_Code": 62565, "X": -88.807207, "Y": 39.40771, "Total_Bed": 30, "AvailableBed": 14, "Bed_in_Use": 16, "Adult_ICU_Bed": 8, "Total_Vent": 2, "Available_Vent": 1, "Vent_in_Use": 1, "CovidConfirmedPatient": 14, "CovidPatient_in_ICU": 1, "CovidPatientVent": 1 }, "geometry": { "type": "Point", "coordinates": [ -88.807207, 39.40771 ] } },
{ "type": "Feature", "properties": { "FID": 155, "Hospital": "Taylorville Memorial Hospital", "StreetAddress": "201 East Pleasant Street", "City": "Taylorville", "ZIP_Code": 62568, "X": -89.293624, "Y": 39.553787, "Total_Bed": 25, "AvailableBed": 11, "Bed_in_Use": 14, "Adult_ICU_Bed": 6, "Total_Vent": 2, "Available_Vent": 1, "Vent_in_Use": 1, "CovidConfirmedPatient": 12, "CovidPatient_in_ICU": 1, "CovidPatientVent": 0 }, "geometry": { "type": "Point", "coordinates": [ -89.293624, 39.553787 ] } },
{ "type": "Feature", "properties": { "FID": 35, "Hospital": "Mason District Hospital", "StreetAddress": "615 N. Promenade", "City": "Havana", "ZIP_Code": 62644, "X": -90.056086, "Y": 40.305064, "Total_Bed": 25, "AvailableBed": 11, "Bed_in_Use": 14, "Adult_ICU_Bed": 6, "Total_Vent": 2, "Available_Vent": 1, "Vent_in_Use": 1, "CovidConfirmedPatient": 12, "CovidPatient_in_ICU": 1, "CovidPatientVent": 0 }, "geometry": { "type": "Point", "coordinates": [ -90.056086, 40.305064 ] } },
{ "type": "Feature", "properties": { "FID": 51, "Hospital": "Passavant Area Hospital", "StreetAddress": "1600 West Walnut Street", "City": "Jacksonville", "ZIP_Code": 62650, "X": -90.2596, "Y": 39.745317, "Total_Bed": 131, "AvailableBed": 59, "Bed_in_Use": 72, "Adult_ICU_Bed": 33, "Total_Vent": 11, "Available_Vent": 6, "Vent_in_Use": 4, "CovidConfirmedPatient": 62, "CovidPatient_in_ICU": 3, "CovidPatientVent": 2 }, "geometry": { "type": "Point", "coordinates": [ -90.2596, 39.745317 ] } },
{ "type": "Feature", "properties": { "FID": 61, "Hospital": "Sarah D Culbertson Memorial Hospital", "StreetAddress": "238 South Congress", "City": "Rushville", "ZIP_Code": 62681, "X": -90.56361, "Y": 40.11851, "Total_Bed": 22, "AvailableBed": 10, "Bed_in_Use": 12, "Adult_ICU_Bed": 6, "Total_Vent": 2, "Available_Vent": 1, "Vent_in_Use": 1, "CovidConfirmedPatient": 10, "CovidPatient_in_ICU": 1, "CovidPatientVent": 0 }, "geometry": { "type": "Point", "coordinates": [ -90.56361, 40.11851 ] } },
{ "type": "Feature", "properties": { "FID": 191, "Hospital": "Vibra Hospital of Springfield", "StreetAddress": "701 North Walnut Street", "City": "Springfield", "ZIP_Code": 62702, "X": -89.663597, "Y": 39.80895, "Total_Bed": 50, "AvailableBed": 23, "Bed_in_Use": 27, "Adult_ICU_Bed": 13, "Total_Vent": 4, "Available_Vent": 2, "Vent_in_Use": 2, "CovidConfirmedPatient": 23, "CovidPatient_in_ICU": 1, "CovidPatientVent": 1 }, "geometry": { "type": "Point", "coordinates": [ -89.663597, 39.80895 ] } },
{ "type": "Feature", "properties": { "FID": 77, "Hospital": "SSM Health St. Mary's Hospital", "StreetAddress": "400 North Pleasant Ave.", "City": "Centralia", "ZIP_Code": 62801, "X": -89.116044, "Y": 38.52902, "Total_Bed": 125, "AvailableBed": 56, "Bed_in_Use": 69, "Adult_ICU_Bed": 31, "Total_Vent": 10, "Available_Vent": 6, "Vent_in_Use": 4, "CovidConfirmedPatient": 59, "CovidPatient_in_ICU": 3, "CovidPatientVent": 2 }, "geometry": { "type": "Point", "coordinates": [ -89.116044, 38.52902 ] } },
{ "type": "Feature", "properties": { "FID": 34, "Hospital": "Marshall Browning Hospital", "StreetAddress": "900 N Washington St", "City": "Du Quoin", "ZIP_Code": 62832, "X": -89.236784, "Y": 38.02399, "Total_Bed": 25, "AvailableBed": 11, "Bed_in_Use": 14, "Adult_ICU_Bed": 6, "Total_Vent": 2, "Available_Vent": 1, "Vent_in_Use": 1, "CovidConfirmedPatient": 12, "CovidPatient_in_ICU": 1, "CovidPatientVent": 0 }, "geometry": { "type": "Point", "coordinates": [ -89.236784, 38.02399 ] } },
{ "type": "Feature", "properties": { "FID": 14, "Hospital": "Fairfield Memorial Hospital", "StreetAddress": "303 NW 11th Street", "City": "Fairfield", "ZIP_Code": 62837, "X": -88.374465, "Y": 38.380867, "Total_Bed": 55, "AvailableBed": 25, "Bed_in_Use": 30, "Adult_ICU_Bed": 14, "Total_Vent": 4, "Available_Vent": 3, "Vent_in_Use": 2, "CovidConfirmedPatient": 26, "CovidPatient_in_ICU": 1, "CovidPatientVent": 1 }, "geometry": { "type": "Point", "coordinates": [ -88.374465, 38.380867 ] } },
{ "type": "Feature", "properties": { "FID": 5, "Hospital": "Clay County Hospital", "StreetAddress": "911 Stacy Burk Drive", "City": "Flora", "ZIP_Code": 62839, "X": -88.472234, "Y": 38.680785, "Total_Bed": 20, "AvailableBed": 9, "Bed_in_Use": 11, "Adult_ICU_Bed": 5, "Total_Vent": 2, "Available_Vent": 1, "Vent_in_Use": 1, "CovidConfirmedPatient": 9, "CovidPatient_in_ICU": 1, "CovidPatientVent": 0 }, "geometry": { "type": "Point", "coordinates": [ -88.472234, 38.680785 ] } },
{ "type": "Feature", "properties": { "FID": 82, "Hospital": "Wabash General Hospital", "StreetAddress": "1418 College Drive", "City": "Mount Carmel", "ZIP_Code": 62863, "X": -87.768891, "Y": 38.421696, "Total_Bed": 25, "AvailableBed": 11, "Bed_in_Use": 14, "Adult_ICU_Bed": 6, "Total_Vent": 2, "Available_Vent": 1, "Vent_in_Use": 1, "CovidConfirmedPatient": 12, "CovidPatient_in_ICU": 1, "CovidPatientVent": 0 }, "geometry": { "type": "Point", "coordinates": [ -87.768891, 38.421696 ] } },
{ "type": "Feature", "properties": { "FID": 103, "Hospital": "Crossroads Community Hospital", "StreetAddress": "#8 Doctors Park", "City": "Mt. Vernon", "ZIP_Code": 62864, "X": -88.937174, "Y": 38.31098, "Total_Bed": 47, "AvailableBed": 21, "Bed_in_Use": 26, "Adult_ICU_Bed": 12, "Total_Vent": 4, "Available_Vent": 2, "Vent_in_Use": 2, "CovidConfirmedPatient": 22, "CovidPatient_in_ICU": 1, "CovidPatientVent": 1 }, "geometry": { "type": "Point", "coordinates": [ -88.937174, 38.31098 ] } },
{ "type": "Feature", "properties": { "FID": 60, "Hospital": "Salem Township Hospital", "StreetAddress": "1201 Ricker Dr", "City": "Salem", "ZIP_Code": 62881, "X": -88.947571, "Y": 38.641441, "Total_Bed": 25, "AvailableBed": 11, "Bed_in_Use": 14, "Adult_ICU_Bed": 6, "Total_Vent": 2, "Available_Vent": 1, "Vent_in_Use": 1, "CovidConfirmedPatient": 12, "CovidPatient_in_ICU": 1, "CovidPatientVent": 0 }, "geometry": { "type": "Point", "coordinates": [ -88.947571, 38.641441 ] } },
{ "type": "Feature", "properties": { "FID": 11, "Hospital": "Memorial Hospital of Carbondale", "StreetAddress": "405 West Jackson", "City": "Carbondale", "ZIP_Code": 62901, "X": -89.218896, "Y": 37.728011, "Total_Bed": 154, "AvailableBed": 69, "Bed_in_Use": 85, "Adult_ICU_Bed": 39, "Total_Vent": 13, "Available_Vent": 7, "Vent_in_Use": 5, "CovidConfirmedPatient": 72, "CovidPatient_in_ICU": 4, "CovidPatientVent": 3 }, "geometry": { "type": "Point", "coordinates": [ -89.218896, 37.728011 ] } },
{ "type": "Feature", "properties": { "FID": 153, "Hospital": "Anna Hospital Corporation", "StreetAddress": "517 North Main Street", "City": "Anna", "ZIP_Code": 62906, "X": -89.245045, "Y": 37.46511, "Total_Bed": 47, "AvailableBed": 21, "Bed_in_Use": 26, "Adult_ICU_Bed": 12, "Total_Vent": 4, "Available_Vent": 2, "Vent_in_Use": 2, "CovidConfirmedPatient": 22, "CovidPatient_in_ICU": 1, "CovidPatientVent": 1 }, "geometry": { "type": "Point", "coordinates": [ -89.245045, 37.46511 ] } },
{ "type": "Feature", "properties": { "FID": 149, "Hospital": "Ferrell Hospital", "StreetAddress": "1201 Pine Street", "City": "Eldorado", "ZIP_Code": 62930, "X": -88.441516, "Y": 37.81528, "Total_Bed": 25, "AvailableBed": 11, "Bed_in_Use": 14, "Adult_ICU_Bed": 6, "Total_Vent": 2, "Available_Vent": 1, "Vent_in_Use": 1, "CovidConfirmedPatient": 12, "CovidPatient_in_ICU": 1, "CovidPatientVent": 0 }, "geometry": { "type": "Point", "coordinates": [ -88.441516, 37.81528 ] } },
{ "type": "Feature", "properties": { "FID": 12, "Hospital": "Harrisburg Medical Center", "StreetAddress": "100 Dr. Warren Tuttle Drive", "City": "Harrisburg", "ZIP_Code": 62946, "X": -88.523818, "Y": 37.730911, "Total_Bed": 77, "AvailableBed": 35, "Bed_in_Use": 42, "Adult_ICU_Bed": 19, "Total_Vent": 6, "Available_Vent": 4, "Vent_in_Use": 3, "CovidConfirmedPatient": 36, "CovidPatient_in_ICU": 2, "CovidPatientVent": 1 }, "geometry": { "type": "Point", "coordinates": [ -88.523818, 37.730911 ] } },
{ "type": "Feature", "properties": { "FID": 22, "Hospital": "Herrin Hospital", "StreetAddress": "201 S 14th Street", "City": "Herrin", "ZIP_Code": 62948, "X": -89.025574, "Y": 37.80125, "Total_Bed": 114, "AvailableBed": 51, "Bed_in_Use": 63, "Adult_ICU_Bed": 29, "Total_Vent": 9, "Available_Vent": 5, "Vent_in_Use": 4, "CovidConfirmedPatient": 54, "CovidPatient_in_ICU": 3, "CovidPatientVent": 2 }, "geometry": { "type": "Point", "coordinates": [ -89.025574, 37.80125 ] } },
{ "type": "Feature", "properties": { "FID": 146, "Hospital": "Heartland Regional Medical Center", "StreetAddress": "333 N DeYoung St", "City": "Marion", "ZIP_Code": 62959, "X": -88.930166, "Y": 37.740917, "Total_Bed": 106, "AvailableBed": 48, "Bed_in_Use": 58, "Adult_ICU_Bed": 27, "Total_Vent": 9, "Available_Vent": 5, "Vent_in_Use": 4, "CovidConfirmedPatient": 50, "CovidPatient_in_ICU": 3, "CovidPatientVent": 2 }, "geometry": { "type": "Point", "coordinates": [ -88.930166, 37.740917 ] } },
{ "type": "Feature", "properties": { "FID": 36, "Hospital": "Massac Memorial Hospital", "StreetAddress": "28 Chick Street", "City": "Metropolis", "ZIP_Code": 62960, "X": -88.73945, "Y": 37.166738, "Total_Bed": 25, "AvailableBed": 11, "Bed_in_Use": 14, "Adult_ICU_Bed": 6, "Total_Vent": 2, "Available_Vent": 1, "Vent_in_Use": 1, "CovidConfirmedPatient": 12, "CovidPatient_in_ICU": 1, "CovidPatientVent": 0 }, "geometry": { "type": "Point", "coordinates": [ -88.73945, 37.166738 ] } },
{ "type": "Feature", "properties": { "FID": 111, "Hospital": "St Joseph Memorial Hospital", "StreetAddress": "2 South Hospital Drive", "City": "Murphysboro", "ZIP_Code": 62966, "X": -89.325488, "Y": 37.773177, "Total_Bed": 25, "AvailableBed": 11, "Bed_in_Use": 14, "Adult_ICU_Bed": 6, "Total_Vent": 2, "Available_Vent": 1, "Vent_in_Use": 1, "CovidConfirmedPatient": 12, "CovidPatient_in_ICU": 1, "CovidPatientVent": 0 }, "geometry": { "type": "Point", "coordinates": [ -89.325488, 37.773177 ] } },
{ "type": "Feature", "properties": { "FID": 21, "Hospital": "Hardin County General Hospital", "StreetAddress": "6 Ferrell Road", "City": "Rosiclare", "ZIP_Code": 62982, "X": -88.347571, "Y": 37.4215, "Total_Bed": 25, "AvailableBed": 11, "Bed_in_Use": 14, "Adult_ICU_Bed": 6, "Total_Vent": 2, "Available_Vent": 1, "Vent_in_Use": 1, "CovidConfirmedPatient": 12, "CovidPatient_in_ICU": 1, "CovidPatientVent": 0 }, "geometry": { "type": "Point", "coordinates": [ -88.347571, 37.4215 ] } }
]
}
